store_number,city,zipcode,street,street_number,latitude,longitude,title,subtitle,text,phone,fax,email,store_hours,store_hours_notes,payment,website,distribution,parking,barrier_free,bonus_card,section,service,toilet,default_radius
715357,Versailles,78000,"1 Place Raymond Poincaré",,48.796901755415,2.1350287785038,,,,,,,,,,,,,,,,,,
715356,Drumettaz-Clarafond,73420,"248 avenue du golf",,45.66234455606,5.9095543282907,,,,,,,,,,,,,,,,,,
715355,Chemillé-en-Anjou,49120,"Rue de la barre",,47.202540725373,-0.72891519789428,,,,,,,,,,,,,,,,,,
714027,PAU,64000,"51 av du Loup",,43.311946106185,-0.35675906430875,,,,,,,,,,,,,,,,,,
714026,"LA TESTE DE BUCH",33115,"résidence Arcachon Marine",,44.63978850926,-1.1547632839004,,,,,,,,,,,,,,,,,,
714025,Saint-Médard-en-Jalles,33160,"av Descartes",,44.885529152438,-0.69269301408177,,,,,,,,,,,,,,,,,,
714024,"RIA SIRACH",66500,"rte de Mont Louis",,42.612498782241,2.4108143632791,,,,,,,,,,,,,,,,,,
714023,FABREGUES,34690,"44 Rue Francis Bergèse",,43.560726420611,3.7974761667543,,,,,,,,,,,,,,,,,,
714022,"LE MESNIL EN THELLE",60530,"238 av Jacques Vogt",,49.15863842945,2.2651103970201,,,,,,,,,,,,,,,,,,
714021,Marly,59770,"Avenue Henry Barbusse",,50.351020502135,3.5406822887154,,,,,,,,,,,,,,,,,,
714020,"MITRY MORY",77290,"Mitry le Neuf 36 av de Verdun",,48.954889237198,2.5979397686586,,,,,,,,,,,,,,,,,,
714019,"VILLENEUVE LOUBET",6270,"2040 RD 6007",,43.631607954962,7.1343971700311,,,,,,,,,,,,,,,,,,
714018,"LES PENNES MIRABEAU",13170,"chemin des Pennes aux Pins",,43.412820409348,5.3595721772226,,,,,,,,,,,,,,,,,,
714017,"DIGNE LES BAINS",4000,"ld la Tour",,44.070069008125,6.1779118944738,,,,,,,,,,,,,,,,,,
714016,MARLY,59770,"58T rue Paul Vaillant Couturier",,50.338948898112,3.5236245436968,,,,,,,,,,,,,,,,,,
714015,"ST MARTIN DE QUEYRIERES",5120,"Pré du Faure",,44.863775910521,6.5953256966858,,,,,,,,,,,,,,,,,,
714014,"TRANS EN PROVENCE",83720,"1612 rte de Draguignan",,43.514678745677,6.4773092274116,,,,,,,,,,,,,,,,,,
714013,Saint-André-de-Cubzac,33240,"zac de la Garosse 1470 av de l'Europe",,45.013886769587,-0.42694908628187,,,,,,,,,,,,,,,,,,
714012,CRESPIN,59154,"70 rue des Deportés",,50.405379712725,3.6655025653058,,,,,,,,,,,,,,,,,,
714011,WARCQ,8000,"1 bd Lucien Pierquin",,49.776578885069,4.6988978143882,,,,,,,,,,,,,,,,,,
714010,PERPIGNAN,66000,"av Julien Panchot",,42.677912013243,2.8507886909792,,,,,,,,,,,,,,,,,,
714009,"VILLEFRANCHE DE ROUERGUE",12200,"les Cabrières rte de Montauban",,44.361103044957,2.0032050886099,,,,,,,,,,,,,,,,,,
714008,Sainte-Feyre,23000,"le Verger",,46.175294987505,1.8934571646685,,,,,,,,,,,,,,,,,,
714007,MARLY,59770,"za de la Ferme St Ladre",,49.083134836134,6.1465372842319,,,,,,,,,,,,,,,,,,
714006,"VILLERS COTTERETS",2600,"av de la Ferté Milon",,49.249381911137,3.0953615989506,,,,,,,,,,,,,,,,,,
714005,"AMBARES ET LAGRAVE",33440,"Domaine de Beauséjour av de St Loubès",,44.924043965185,-0.46645347047303,,,,,,,,,,,,,,,,,,
714004,"ST PIERRE DU MONT",40280,"1751 av Kennedy",,43.872537061409,-0.49133843782502,,,,,,,,,,,,,,,,,,
714003,"AIGUES VIVES",30670,"za de Lalemande",,43.714621560919,4.1982336709451,,,,,,,,,,,,,,,,,,
714002,"BOGNY SUR MEUSE",8120,"rue Victor Hugo",,49.844178707901,4.7727296974604,,,,,,,,,,,,,,,,,,
714001,"La Rochelle",17000,"13 av Billaud Varenne",,46.151661158902,-1.1218507227222,,,,,,,,,,,,,,,,,,
709967,"Belleville Sur Meuse",55430,"2 Av Du Général De Gaulle",,49.16596,5.38246,,,,,,,,,,,,,,,,,,
709966,"Chevigny St Sauveur",21800,"Zac Les Terres Rousses Rte De Dijon",,47.30283,5.11471,,,,,,,,,,,,,,,,,,
709965,Epagny,74330,"89 Rue De L'Industrie",,45.937690310351,6.0801664593436,,,,,,,,,,,,,,,,,,
709964,"Tignieu Jameyzieu",38230,"114 Rte De Crémieu",,45.75181,5.19819,,,,,,,,,,,,,,,,,,
709963,Langon,33210,"Rte De Fargues",,44.54364,-0.26084,,,,,,,,,,,,,,,,,,
709962,"Serres Castet",64121,"Rue Du Valentin",,43.36097,-0.38614,,,,,,,,,,,,,,,,,,
708821,Fresnes,94260,"Allée De La Jachère, 24",,48.75508,2.33042,,,,,,,,,,,,,,,,,,
708819,L'Isle-Sur-La-Sorgue,84800,"Route Du Thor, 594",,43.9195,5.04025,,,,,,,,,,,,,,,,,,
708818,Serris,77700,"Cours Du Danube, 14",,48.85288,2.77798,,,,,,,,,,,,,,,,,,
708817,"Franqueville St Pierre",76520,"Place Haut Hubert, 2",,49.40459,1.15371,,,,,,,,,,,,,,,,,,
708816,Haguenau,67500,"Route De Bitche, 2",,48.82006,7.77876,,,,,,,,,,,,,,,,,,
708815,Cucq,62780,"Avenue D'Etaples, 520",,50.50734,1.62764,,,,,,,,,,,,,,,,,,
708814,"Saint Aignan",41110,"Avenue Du Blanc, 16",,47.26101,1.36051,,,,,,,,,,,,,,,,,,
708813,Rennes,35000,"Rue De La Visitation, 13",,48.11438,-1.67858,,,,,,,,,,,,,,,,,,
708812,Bazas,33430,"Chemin De Pérette, 1",,44.44171,-0.24021,,,,,,,,,,,,,,,,,,
708811,"Le Tignet",06530,"Route De Draguignan, 355",,43.63531,6.8564,,,,,,,,,,,,,,,,,,
707610,Valenciennes,59300,"239 Avenue Désandrouin",,50.36418,3.48812,,,,,,,,,,,,,,,,,,
707609,Teyran,34820,"1550 Av De Montpellier",,43.67265,3.91368,,,,,,,,,,,,,,,,,,
707608,"Ste Genevieve Des Bois",91700,"21 Du Plessis",,48.63184,2.33368,,,,,,,,,,,,,,,,,,
707607,Saint-Longis,72600,"2 Lieu-Dit Le Haut Saint Jean",,48.35282,0.35647,,,,,,,,,,,,,,,,,,
707606,"Saint Etienne",42000,"5 Rue Jean Jacques Rousseau",,45.4438,4.3783,,,,,,,,,,,,,,,,,,
707605,"Montoire Sur Le Loir",41800,"22 Avenue De La Paix",,47.7595,0.87797,,,,,,,,,,,,,,,,,,
707604,Marseille,13013,"215 Avenue Des Olives",,43.32425,5.44352,,,,,,,,,,,,,,,,,,
707603,"La Cote Saint Andre",38260,"100 Avenue Aristide Briand",,45.39268,5.2404,,,,,,,,,,,,,,,,,,
707602,Jurançon,64110,"1 Avenue Du 18 Juin 1940",,43.29112,-0.40496,,,,,,,,,,,,,,,,,,
707601,Floirac,33270,"1 Avenue Salvador Allende",,44.84482,-0.51086,,,,,,,,,,,,,,,,,,
707600,Daix,21121,"54 Rue De Dijon",,47.34375,4.99931,,,,,,,,,,,,,,,,,,
707599,Combs-La-Ville,77380,"1 Rue Pablo Picasso",,48.65942,2.56367,,,,,,,,,,,,,,,,,,
707598,Carpiquet,14650,"80 Route De Caen",,49.1872,-0.42204,,,,,,,,,,,,,,,,,,
707597,"Bourg En Bresse",01000,"1 Boulevard John Kennedy",,46.20729,5.23841,,,,,,,,,,,,,,,,,,
707596,Baume-Les-Dames,25110,"2 Rue Rosa Luxembourg",,47.34897,6.33626,,,,,,,,,,,,,,,,,,
703555,"Andilly (Charente Maritime)",17230,"Les Quatres Quartiers",,46.26109,-1.01134,,,,,,,,,,,,,,,,,,
703554,Carpentras,84200,"310 Voie De Monteux",,44.04481,5.02533,,,,,,,,,,,,,,,,,,
703553,Châtenay-Malabry,92290,"6 Rue De L'Oiseau Bleu",,48.76605,2.29054,,,,,,,,,,,,,,,,,,
703552,Hayange,57700,"6 Esplanade De La Liberté",,49.32897,6.06738,,,,,,,,,,,,,,,,,,
703551,Arques,62510,"71 Avenue Du Général De Gaulle",,50.7279,2.30513,,,,,,,,,,,,,,,,,,
703550,Darnétal,76160,"88 Rue Sadi Carnot",,49.44073,1.14538,,,,,,,,,,,,,,,,,,
703549,Paris,75014,"53/55 Avenue Du Maine",,48.83992,2.32232,,,,,,,,,,,,,,,,,,
703548,Solesmes,59730,"Du Général De Gaulle",,50.18981,3.49872,,,,,,,,,,,,,,,,,,
700108,Salon-De-Provence,13300,"310 Allée Szentendre 310",,43.63772,5.07643,,,,,,,,,,,,,,,,,,
700107,"La Guerche-De-Bretagne",35130,"35 Faubourg De Nantes",,47.93586,-1.23118,,,,,,,,,,,,,,,,,,
700106,Nîmes,30000,"1545 Route De Saint-Gilles",,43.8085,4.37218,,,,,,,,,,,,,,,,,,
700105,Cenon,33150,"3 Avenue René Cassagne",,44.86486,-0.51376,,,,,,,,,,,,,,,,,,
700104,Manosque,04100,"Boulevard Saint Joseph, 16",,43.82049,5.79485,,,,,,,,,,,,,,,,,,
700103,"Le Lion-D'Angers",49220,"2 Place Gustave Trouvé",,47.61517,-0.71087,,,,,,,,,,,,,,,,,,
700102,"La Madeleine-De-Nonancourt",27320,"14 Rue De Saint-André",,48.77864,1.20433,,,,,,,,,,,,,,,,,,
700101,Lambersart,59130,"226 Rue Auguste Bonte",,50.64599,3.01559,,,,,,,,,,,,,,,,,,
700100,Lamotte-Beuvron,41600,"98 Avenue De Vierzon",,47.58542,2.02494,,,,,,,,,,,,,,,,,,
700099,Auch,32000,"2 Rue Roger Salengro",,43.66461,0.59985,,,,,,,,,,,,,,,,,,
700098,Pézenas,34120,"Avenue Général De Gaulle, 170",,43.45339,3.41201,,,,,,,,,,,,,,,,,,
700097,Thillois,51370,"1 Rue Des Acacias",,49.26052,3.96532,,,,,,,,,,,,,,,,,,
700096,"Flers (Orne)",61100,"24 Rue De La Minière",,48.73544,-0.57513,,,,,,,,,,,,,,,,,,
700095,Béthune,62400,"60 Rue Jean Baptiste Lebas",,50.52157,2.63379,,,,,,,,,,,,,,,,,,
700094,Saint-Julien-En-Genevois,74160,"6 Route De Lathoy",,46.14136,6.09232,,,,,,,,,,,,,,,,,,
700093,Vaulx-En-Velin,69120,"32 Avenue Marcel Cachin",,45.78361,4.93583,,,,,,,,,,,,,,,,,,
700092,Neuville-Ferrières,76270,"Route De Forges Les Eaux",,49.72573,1.45908,,,,,,,,,,,,,,,,,,
700091,Saint-Cyr-L'École,78210,"104 Avenue Pierre Curie",,48.79515,2.05347,,,,,,,,,,,,,,,,,,
700090,"Le Havre",76600,"70 Quai Frissard",,49.49036,0.12704,,,,,,,,,,,,,,,,,,
700089,Épinal,88000,"58 Rue D'Alsace",,48.16661,6.44613,,,,,,,,,,,,,,,,,,
700088,Esmans,77940,"1 Rue Des Abreuvoirs",,48.36231,2.9571,,,,,,,,,,,,,,,,,,
700087,Ballainvilliers,91160,"9 Rue De La Tuilerie",,48.66918,2.28492,,,,,,,,,,,,,,,,,,
700086,Herblay,95220,"7 René Coty",,49.00199,2.18654,,,,,,,,,,,,,,,,,,
700085,Saint-Dié-Des-Vosges,88100,"3 Rue Antoine De Saint-Exupery",,48.29157,6.93854,,,,,,,,,,,,,,,,,,
700084,Ivry-Sur-Seine,94200,"42 Avenue Jean Jaurès",,48.81119,2.40292,,,,,,,,,,,,,,,,,,
700083,Ploufragan,22440,"Avenue Des Plaines Villes",,48.51302,-2.80442,,,,,,,,,,,,,,,,,,
700082,Gex,01170,"22 Rue Des Transporteurs",,46.33792,6.07381,,,,,,,,,,,,,,,,,,
700081,Bagnols-Sur-Cèze,30200,"1863 Route D'Avignon",,44.15254,4.64783,,,,,,,,,,,,,,,,,,
700080,Mer,41500,"19 Route D'Orléans",,47.70338,1.51376,,,,,,,,,,,,,,,,,,
700079,Arveyres,33500,"21 Route De La Rotonde - Port Du Nouguey",,44.9099,-0.25719,,,,,,,,,,,,,,,,,,
700078,Châlons-En-Champagne,51000,"4 Romain Rolland",,48.95026,4.35143,,,,,,,,,,,,,,,,,,
700077,Schiltigheim,67300,"3 Allée Frédérique Kleinknecht",,48.59963,7.74292,,,,,,,,,,,,,,,,,,
700076,Tourcoing,59200,"19 Rue Du Canal",,50.70549,3.15947,,,,,,,,,,,,,,,,,,
700075,Publier,74500,"Rue Des Vignes Rouge",,46.38974,6.52119,,,,,,,,,,,,,,,,,,
700074,"Le Havre",76620,"52 Rue Demidoff",,49.49756,0.1359,,,,,,,,,,,,,,,,,,
700073,Amiens,80000,"13 Avenue De La Défense Passive",,49.90749,2.31926,,,,,,,,,,,,,,,,,,
700072,Corbeil-Essonnes,91100,"24 Avenue Paul Maintenant",,48.60785,2.45131,,,,,,,,,,,,,,,,,,
700071,Vitry-Sur-Seine,94400,"1-3 Rue Eugène Hénaff",,48.7939,2.41742,,,,,,,,,,,,,,,,,,
691096,Melun,77000,"36 Avenue Du General Patton",,48.54738,2.64945,,,,,,,,,,,,,,,,,,
690220,"Le Biot",06270,"2040 Rd 6007",,43.63156,7.13393,,,,,,,,,,,,,,,,,,
690218,Montbéliard,25200,"38 Avenue Genéral Leclerc",,47.51549,6.79736,,,,,,,,,,,,,,,,,,
690217,Toulon-Sur-Allier,03400,"Rd 707",,46.5361,3.34654,,,,,,,,,,,,,,,,,,
690216,Muille-Villette,80400,"81 Rue De Paris",,49.73059,3.0678,,,,,,,,,,,,,,,,,,
690213,Aubergenville,78410,"14 Rue De Quarante Sous",,48.96497,1.85637,,,,,,,,,,,,,,,,,,
690212,Nyons,26110,"65 Route De Montélimar",,44.36384,5.1256,,,,,,,,,,,,,,,,,,
690211,Lège,44650,"21 Rue Jean-Claude Grassineau",,46.89236,-1.58602,,,,,,,,,,,,,,,,,,
690210,Eckbolsheim,67201,"11 Rue Jean Monnet",,48.58915,7.687,,,,,,,,,,,,,,,,,,
690209,Capens,31410,D10,,43.34061,1.25633,,,,,,,,,,,,,,,,,,
690208,"La Talaudière",42350,"41 Rue Victor Hugo",,45.48299,4.43941,,,,,,,,,,,,,,,,,,
685451,Langlade,30980,"Lieu Dit Le Vignaud",,43.80811,4.24216,,,,,,,,,,,,,,,,,,
685449,Lomme,59160,"83 Rue De L'Egalité",,50.63191,3.00032,,,,,,,,,,,,,,,,,,
685448,Poussan,34560,"71 Avenue Des Lauriers",,43.47378,3.67805,,,,,,,,,,,,,,,,,,
685445,Lavardac,47230,"Route De Nérac",,44.1688,0.2996,,,,,,,,,,,,,,,,,,
685444,Saran,45770,"1749 Route Nationale 20",,47.95319,1.89005,,,,,,,,,,,,,,,,,,
685443,Torigni-Sur-Vire,50160,"29 Route De Saint-Lô",,49.04072,-0.98371,,,,,,,,,,,,,,,,,,
685442,Pia,66380,"20 Route De Bompas",,42.7405,2.92737,,,,,,,,,,,,,,,,,,
685441,Mûrs-Erigné,49610,"2 Mail Du Grand Clos",,47.39617,-0.52747,,,,,,,,,,,,,,,,,,
685440,Nice,06000,"29 Avenue Alphonse Karr",,43.7012,7.26356,,,,,,,,,,,,,,,,,,
685439,Cogolin,83310,"626 Avenue Des Narcisses",,43.2548,6.5574,,,,,,,,,,,,,,,,,,
685438,Gémozac,17260,"4 Rue Des Frenes Za Pied Sec",,45.57746,-0.68083,,,,,,,,,,,,,,,,,,
685437,Villenave-D'Ornon,33140,"1 Avenue Du 7Eme Art",,44.78787,-0.53438,,,,,,,,,,,,,,,,,,
685436,Mably,42300,"99 Rue Jean De La Fontaine",,46.06593,4.06028,,,,,,,,,,,,,,,,,,
685435,L'Isle-D'Abeau,38080,"6 Rue Des Sayes",,45.61598,5.23451,,,,,,,,,,,,,,,,,,
685434,"Saint-Priest (Rhône)",69800,"35 Rue Du Progrès",,45.71639,4.95865,,,,,,,,,,,,,,,,,,
685433,Marignane,13700,"2 Allée De La Palun",,43.40618,5.20427,,,,,,,,,,,,,,,,,,
685432,Élancourt,78990,"5 Rue De Bucarest",,48.79148,1.97085,,,,,,,,,,,,,,,,,,
685431,Pignans,83790,D97,,43.30624,6.24947,,,,,,,,,,,,,,,,,,
685430,Villabé,91100,"3 Avenue De La Plaine",,48.58772,2.44723,,,,,,,,,,,,,,,,,,
685429,Villetaneuse,93430,"8 Route De St Leu",,48.94961,2.34441,,,,,,,,,,,,,,,,,,
685428,Villeparisis,77290,"36 Avenue De Verdun",,48.95507,2.59784,,,,,,,,,,,,,,,,,,
685427,Pierrelaye,95220,"128 Avenue Du Général Leclerc",,49.02079,2.14731,,,,,,,,,,,,,,,,,,
685426,Gonesse,95500,"Rond-Point De La Croix St Benoit",,48.98142,2.44232,,,,,,,,,,,,,,,,,,
685425,Courtry,77181,"11 Rue Louis Osteng",,48.90937,2.60602,,,,,,,,,,,,,,,,,,
674687,Rambouillet,78120,"58 Rue Georges Lenôtre",,48.62969,1.82943,,,,,,,,,,,,,,,,,,
674686,Seyssinet-Pariset,38170,"20 Avenue De Grenoble",,45.16875,5.69073,,,,,,,,,,,,,,,,,,
674684,"Le Haillan",33185,"5 Rue Des Satellites",,44.85997,-0.67512,,,,,,,,,,,,,,,,,,
674683,Objat,19130,"Avenue Raymond Poincaré",,45.25509,1.41309,,,,,,,,,,,,,,,,,,
674682,"Le Boulou",66160,"9 Carrer D'En Cavailles",,42.53368,2.8403,,,,,,,,,,,,,,,,,,
674681,Lieuran-Lès-Béziers,34290,"Rue Des Oliviers, 19",,43.41907,3.22766,,,,,,,,,,,,,,,,,,
674680,Châteaugiron,35410,"19 Rue De Rennes",,48.05416,-1.51464,,,,,,,,,,,,,,,,,,
674679,Gerzat,63360,"2 Rue Robert Estienne",,45.81546,3.15158,,,,,,,,,,,,,,,,,,
674678,Bourg-Lès-Valence,26500,"Rue Maryse Bastié",,44.96082,4.88502,,,,,,,,,,,,,,,,,,
664119,Perpignan,66000,"Le Mas Rousse Rue Paul Joseph Barthez",,42.66749,2.89667,,,,,,,,,,,,,,,,,,
664117,Moulins-Lès-Metz,57130,"12 Rue En Machotte",,49.08014,6.10152,,,,,,,,,,,,,,,,,,
664115,"Orgeval (Yvelines)",78630,"2050 Route Des Quarantes Sous",,48.93141,1.97389,,,,,,,,,,,,,,,,,,
664114,Rostrenen,22110,"14 Route De Saint Brieuc",,48.24448,-3.3072,,,,,,,,,,,,,,,,,,
664112,Dol-De-Bretagne,35120,"1A Rue De La Rouelle",,48.55193,-1.72384,,,,,,,,,,,,,,,,,,
664111,L'Île-Saint-Denis,92390,"210 Boulevard Gallieni",,48.93455,2.33343,,,,,,,,,,,,,,,,,,
659458,Salaise-Sur-Sanne,38150,"125 Route Nationale 7",,45.34831,4.80509,,,,,,,,,,,,,,,,,,
659456,"La Crau",83260,"Avenue 8 Mai 1945",,43.15301,6.07288,,,,,,,,,,,,,,,,,,
659455,Châteaurenard,13160,"4 Avenue De La Chaffine",,43.88913,4.83055,,,,,,,,,,,,,,,,,,
659454,Ploërmel,56800,"24 Rue Des Huloux",,47.94447,-2.39444,,,,,,,,,,,,,,,,,,
637609,Sète,34200,"408 Avenue Gilbert Martelli",,43.41323,3.71471,,,,,,,,,,,,,,,,,,
637608,Saint-Pierre-Lès-Elbeuf,76320,"120 Avenue De Bonport",,49.28994,1.04332,,,,,,,,,,,,,,,,,,
637607,"La Mothe-Achard",85150,"2 De La Prairie",,46.60872,-1.6659,,,,,,,,,,,,,,,,,,
635167,"Saint-Alban - Bretagne",22400,"5 Rue De La Gaieté",,48.55958,-2.54367,,,,,,,,,,,,,,,,,,
618865,Paris,75017,"47-49 Boulevard Bessieres",,48.897293,2.3236544,,,,,,,,,,,,,,,,,,
618411,Proville,59267,"122 Avenue De Paris",,50.15619,3.2221,,,,,,,,,,,,,,,,,,
583176,Narbonne,11100,"6 Route De Marcorignan",,43.19036,2.9857206,,,,,,,,,,,,,,,,,,
583175,Quiévrechain,59150,"70 Rue Des Déportés",,50.405495,3.6668665,,,,,,,,,,,,,,,,,,
583174,Choisy-Le-Roi,94600,"138 Avenue De Villeneuve Saint Georges",,48.756824,2.4240777,,,,,,,,,,,,,,,,,,
583172,Froideconche,70300,"Grand Pré Du Relet",,47.81611,6.389794,,,,,,,,,,,,,,,,,,
583171,Savonnières-Devant-Bar,55000,"77 Rue Ernest Bradfer",,48.765583,5.175237,,,,,,,,,,,,,,,,,,
495405,Saint-Jean-D'Angély,17400,"Avenue St Sulpice De Québec",,45.9505,-0.5022405,,,,,,,,,,,,,,,,,,
495403,"Les Herbiers",85500,"Rue Du Grand Rouet",,46.87378,-1.0249422,,,,,,,,,,,,,,,,,,
495402,Nogent-Sur-Seine,10400,"2 Rue Port Au Charbon",,48.486313,3.4863327,,,,,,,,,,,,,,,,,,
495401,Albi,81000,"Route De Saint Juéry",,43.938305,2.1820378,,,,,,,,,,,,,,,,,,
495400,Beauvais,60000,"5805F Rue Du Moulin De Bracheux",,49.423553,2.1145618,,,,,,,,,,,,,,,,,,
495399,Tournus,71700,"2 Avenue Du Clos Mouron",,46.56935,4.90505,,,,,,,,,,,,,,,,,,
495398,"La Seyne-Sur-Mer",83500,"Rue De Lisbonne, 198",,43.107853,5.8536186,,,,,,,,,,,,,,,,,,
495397,Longwy,54400,"39 Avenue Saintignon",,49.523094,5.7740593,,,,,,,,,,,,,,,,,,
495396,Ploumagoar,22970,"Zone D'Activités Du Runiou",,48.548313,-3.147255,,,,,,,,,,,,,,,,,,
495395,Carvin,62200,"1 Route De Oignies",,50.479557,2.9645832,,,,,,,,,,,,,,,,,,
495393,Sarrians,84260,"18 Rte De Carpentras",,44.07994,4.981813,,,,,,,,,,,,,,,,,,
493115,Nice,06000,"Rue De Roquebillière",,43.70894,7.28748,,,,,,,,,,,,,,,,,,
493112,Nœux-Les-Mines,62290,"77A Rue Léon Blum",,50.47733,2.68022,,,,,,,,,,,,,,,,,,
493111,Sallaumines,62430,"70 Bis Constant Darras",,50.42306,2.84779,,,,,,,,,,,,,,,,,,
493110,Tourcoing,59200,"Chaussée Ferdinand Forest",,50.73707,3.16073,,,,,,,,,,,,,,,,,,
493109,Saint-Paul-Lès-Dax,40990,"2104 Avenue De La Résistance",,43.72723,-1.07645,,,,,,,,,,,,,,,,,,
493107,Oloron-Sainte-Marie,64400,"90 Rue Oustalots",,43.17981,-0.61498,,,,,,,,,,,,,,,,,,
493106,Pau,64000,"51 Avenue Du Loup",,43.31192,-0.35678118,,,,,,,,,,,,,,,,,,
493105,Toulouse,31300,"82 Avenue De Lardenne",,43.5923,1.39948,,,,,,,,,,,,,,,,,,
493104,Plaisance-Du-Touch,31830,"32 Route De Toulouse",,43.57079,1.31178,,,,,,,,,,,,,,,,,,
493103,Plestin-Les-Grèves,22310,"Rue De Guergay",,48.663055,-3.6258879,,,,,,,,,,,,,,,,,,
493102,Reuil-En-Brie,77260,"Rue Du 8 Mai 1945",,48.95506,3.14153,,,,,,,,,,,,,,,,,,
493101,Romilly-Sur-Seine,10100,"1 Allée Des Entrepreneurs",,48.50895,3.71216,,,,,,,,,,,,,,,,,,
493100,Troyes,10000,"6 Avenue Maréchal De Lattre De Tassigny",,48.30525,4.09383,,,,,,,,,,,,,,,,,,
493099,Saint-Quentin,02100,"21 Rue Du Maréchal Foch",,49.84028,3.30001,,,,,,,,,,,,,,,,,,
493098,Soissons,02200,"43 Avenue De Laon",,49.38856,3.3366604,,,,,,,,,,,,,,,,,,
493097,Pfaffenhoffen,67350,"55 Route De Saverne",,48.84285,7.59347,,,,,,,,,,,,,,,,,,
493096,Reims,51100,"Rue Denis Papin",,49.269295,4.068721,,,,,,,,,,,,,,,,,,
493095,Saint-Avold,57730,"8 Rue Du Wenheck",,49.09453,6.71645,,,,,,,,,,,,,,,,,,
493094,Terville,57180,"3 Avenue Du 14 Juillet 1789",,49.35633,6.13033,,,,,,,,,,,,,,,,,,
493092,Santeny,94440,"Avenue De La Butte Gayen",,48.71421,2.57351,,,,,,,,,,,,,,,,,,
493091,Vaux-Le-Pénil,77000,"100 Route De Montereau",,48.53919,2.6794,,,,,,,,,,,,,,,,,,
493090,Pithiviers,45300,"Passée De Senives Lieu Dit De La Pointe",,48.190777,2.2461185,,,,,,,,,,,,,,,,,,
493088,Ploemeur,56270,"Rue De Saint Bieuzy",,47.73376,-3.42994,,,,,,,,,,,,,,,,,,
493087,Saint-Onen-La-Chapelle,35290,"Rue Louis Pasteur",,48.18766,-2.1733,,,,,,,,,,,,,,,,,,
493085,Rennes,35000,"183 Rue De Chatillon",,48.089157,-1.6718466,,,,,,,,,,,,,,,,,,
493084,Noyal-Châtillon-Sur-Seiche,35230,"2 Rue Lavoisier",,48.03994,-1.67939,,,,,,,,,,,,,,,,,,
493083,Questembert,56230,"Rue Des Azalées",,47.668167,-2.447871,,,,,,,,,,,,,,,,,,
493082,Saint-Herblain,44800,"347 Route De Vannes",,47.24909,-1.6144,,,,,,,,,,,,,,,,,,
493081,Saint-Herblain,44800,"15 Saint Nazaire",,47.21081,-1.61598,,,,,,,,,,,,,,,,,,
493079,"Roinville (Eure Et Loir)",91410,"30 Rue Du Général De Gaulle",,48.53206,2.05512,,,,,,,,,,,,,,,,,,
493078,Valenton,94460,"Avenue Julien Duranton",,48.76177,2.44686,,,,,,,,,,,,,,,,,,
493077,Thiais,94320,"8 Rue Des Alouettes",,48.75104,2.36959,,,,,,,,,,,,,,,,,,
493076,Neuilly-Sur-Marne,93330,"113 Avenue Du Général De Gaulle",,48.85883,2.53412,,,,,,,,,,,,,,,,,,
493075,Vaujours,93410,"198 Rue De Meaux",,48.9351,2.58038,,,,,,,,,,,,,,,,,,
493074,Paris,75012,"34 Rue De Reuilly",,48.84605,2.38764,,,,,,,,,,,,,,,,,,
493073,Saint-Sulpice-Sur-Risle,61300,"La Pichotière",,48.76276,0.66063,,,,,,,,,,,,,,,,,,
493072,Saint-Brice-Sous-Forêt,95350,"5 La Chapelle Saint Nicolas",,48.99082,2.36359,,,,,,,,,,,,,,,,,,
493071,Rang-Du-Fliers,62180,"2930 Route De Berck",,50.41567,1.61098,,,,,,,,,,,,,,,,,,
493070,"St Maximin",60740,"125 Rue De La Liberte",,49.24104,2.46919,,,,,,,,,,,,,,,,,,
493069,Osny,95520,"51 Route De Paris À Dieppe",,49.07333,2.0803204,,,,,,,,,,,,,,,,,,
493068,"St Aubin Sur Scie",76550,"45 Impasse De La Pointe",,49.89672,1.07804,,,,,,,,,,,,,,,,,,
493067,"Le Petit-Quevilly",76800,"53 Avenue Des Canadiens",,49.39591,1.06151,,,,,,,,,,,,,,,,,,
493066,Bonsecours,76300,"116 Rue Francois Arago",,49.42175,1.10581,,,,,,,,,,,,,,,,,,
493065,Vallauris,06220,"18 Avenue Du Tapis Vert",,43.57674,7.0573463,,,,,,,,,,,,,,,,,,
493064,Puget-Sur-Argens,83480,"24 Boulevard Du Colonel Dessert",,43.45267,6.69216,,,,,,,,,,,,,,,,,,
493063,Sainte-Maxime,83120,"164 Route Du Plan De La Tour",,43.32792,6.6117,,,,,,,,,,,,,,,,,,
493062,Draguignan,83720,"1608 Route De Draguignan",,43.51498,6.4774,,,,,,,,,,,,,,,,,,
493060,Reynès,66400,"115 Lieu Dit La Cabanasse",,42.494694,2.7245495,,,,,,,,,,,,,,,,,,
493059,Villeneuve-Sur-Lot,47300,"115 Avenue De Fumel",,44.40953,0.73833,,,,,,,,,,,,,,,,,,
493058,Varennes-Sur-Allier,03150,"90 Avenue De Chazeuil",,46.316647,3.3964016,,,,,,,,,,,,,,,,,,
493057,Trélazé,49800,"243 Rue Jean Jaurès",,47.44505,-0.50268,,,,,,,,,,,,,,,,,,
493056,Puilboreau,17138,"21 Rue Du Dix Huit Juin",,46.17672,-1.11079,,,,,,,,,,,,,,,,,,
493054,Tours,37100,"1 Rue Daniel Mayer",,47.41914,0.71635,,,,,,,,,,,,,,,,,,
493053,Saintes,17100,"10 Route De Cognac",,45.74615,-0.59918,,,,,,,,,,,,,,,,,,
493052,Thiviers,24800,"122 Route Des Noyers",,45.40934,0.92337,,,,,,,,,,,,,,,,,,
493051,"Ruffec (Charente)",16700,"Route De Villefagnan",,46.02477,0.18368,,,,,,,,,,,,,,,,,,
493050,Toulouse,31200,"Boulevard Netwiller",,43.6428,1.46595,,,,,,,,,,,,,,,,,,
493049,"Saint-Cyprien (Pyrénées Orientales)",66750,"Avenue Maréchal Leclerc",,42.62308,3.01179,,,,,,,,,,,,,,,,,,
493048,Saleilles,66280,"Rue Frédérick Bousquet",,42.65961,2.952538,,,,,,,,,,,,,,,,,,
493046,"Savigneux (Ain)",42600,"2 Boulevard Duguet",,45.60889,4.06919,,,,,,,,,,,,,,,,,,
493045,Septèmes-Les-Vallons,13170,"603 Chemin Des Pennes Au Pin",,43.41292,5.35877,,,,,,,,,,,,,,,,,,
493044,Portes-Lès-Valence,26800,"3 Rue Maréchal De Lattre De Tassigny",,44.88622,4.87797,,,,,,,,,,,,,,,,,,
493043,Cavaillon,13750,"1447 Avenue Des Vergers",,43.82232,5.02213,,,,,,,,,,,,,,,,,,
493042,"Onet Le Chateau",12850,"51 Route D'Espalion",,44.36609,2.5874348,,,,,,,,,,,,,,,,,,
493041,"Les Angles (Gard)",30650,"380 Allée Des Issarts",,43.95775,4.73756,,,,,,,,,,,,,,,,,,
493040,Sète,34200,"76 Rue De La Chasse Aux Papillons",,43.40035,3.6581,,,,,,,,,,,,,,,,,,
493038,Remoulins,30210,"89 Avenue Geoffroy Perret",,43.93963,4.57298,,,,,,,,,,,,,,,,,,
493037,Nîmes,30900,"655 Av Du Mal Juin",,43.82374,4.36723,,,,,,,,,,,,,,,,,,
493036,Vendargues,34740,"45 Avenue Des Bigos",,43.65239,3.96087,,,,,,,,,,,,,,,,,,
493035,Saint-Christol-Lès-Alès,30380,"81 Route De Monteze",,44.09884,4.08215,,,,,,,,,,,,,,,,,,
493034,Roanne,42300,"3 Rue Des Vies Vielles",,46.03776,4.07836,,,,,,,,,,,,,,,,,,
493032,Vénissieux,69200,"77 Avenue Francis De Pressensé",,45.72579,4.86391,,,,,,,,,,,,,,,,,,
493031,Rillieux-La-Pape,69140,"115 Avenue De L'Hippodrome",,45.81645,4.88979,,,,,,,,,,,,,,,,,,
493030,Puy-Saint-André,05120,"1 Pré Du Fauré",,44.86425,6.59702,,,,,,,,,,,,,,,,,,
493029,Saint-Martin-D'Hères,38400,"17 Rue Des Glairons",,45.18707,5.76183,,,,,,,,,,,,,,,,,,
493028,Neuilly-Lès-Dijon,21800,"1 Rue De La Combe Aux Métiers",,47.27894,5.11377,,,,,,,,,,,,,,,,,,
493026,"Le Pont-De-Beauvoisin (Isère)",73330,"43 Impasse Etienne Laubin",,45.53101,5.68945,,,,,,,,,,,,,,,,,,
493024,Nantua,01130,"23 Route De Genève",,46.1453,5.61309,,,,,,,,,,,,,,,,,,
493023,Saint-Vit,25410,"Rue Des Champs De Tenne",,47.1855,5.8269,,,,,,,,,,,,,,,,,,
493022,"Perrigny (Jura)",39570,"- Route De Conliege",,46.669468,5.5719132,,,,,,,,,,,,,,,,,,
493021,Seynod,74600,"18 Avenue De Périaz",,45.87767,6.08973,,,,,,,,,,,,,,,,,,
493020,Valentigney,25700,"1 Rue De La Libération",,47.46174,6.84129,,,,,,,,,,,,,,,,,,
493018,Lessay,50430,"15 Rue Du Ferrage",,49.21309,-1.5261407,,,,,,,,,,,,,,,,,,
493016,Loos-En-Gohelle,62750,"102 Route De Béthune",,50.4484,2.79545,,,,,,,,,,,,,,,,,,
493014,Linselles,59126,"109 Rue Robert Descamps",,50.73148,3.09228,,,,,,,,,,,,,,,,,,
493013,Loos,59120,"19 Boulevard De La République",,50.61398,3.00921,,,,,,,,,,,,,,,,,,
493012,Montigny-En-Gohelle,62640,"15 Boulevard Salvador Allende",,50.42042,2.92888,,,,,,,,,,,,,,,,,,
493011,Montech,82700,"85 Impasse Lacoste",,43.962307,1.2489064,,,,,,,,,,,,,,,,,,
493010,Valenciennes,59770,"58 Ter Rue Paul Vaillant Couturier",,50.340508,3.523557,,,,,,,,,,,,,,,,,,
493009,"Mont-Saint-Martin (Meurthe Et Moselle)",54350,"Rue Jean Jaurès",,49.54036,5.79472,,,,,,,,,,,,,,,,,,
493008,Maisse,91490,"27 Rue Du Chenêt",,48.39752,2.42118,,,,,,,,,,,,,,,,,,
493006,Lorient,56100,"11 Rue G. Brassens",,47.75674,-3.38707,,,,,,,,,,,,,,,,,,
493005,Mayenne,53100,"21 Rue Louis Blériot",,48.29802,-0.61271,,,,,,,,,,,,,,,,,,
493004,Malestroit,56140,"22 Rue De La Gare",,47.80886,-2.39401,,,,,,,,,,,,,,,,,,
493003,"Le Portel",62480,"42-44 Rue Du Général San Martin",,50.71052,1.58295,,,,,,,,,,,,,,,,,,
493002,Luisant,28600,"5 Rue Du Marechal Leclerc",,48.428,1.4635941,,,,,,,,,,,,,,,,,,
493001,Longpont-Sur-Orge,91310,"2 Chemin De Biron",,48.63506,2.28518,,,,,,,,,,,,,,,,,,
493000,"Les Ulis",91940,"1 Avenue Du Cap Horn",,48.67775,2.19985,,,,,,,,,,,,,,,,,,
492998,Nanterre,92000,"461 Boulevard Des Provinces Francaises",,48.90147,2.21755,,,,,,,,,,,,,,,,,,
492997,Koungou,76600,"1 Rue Capuchet",,49.52328,0.1038,,,,,,,,,,,,,,,,,,
492996,Méru,60110,"2 Allée Louis Lumière",,49.22112,2.12975,,,,,,,,,,,,,,,,,,
492994,"Le Petit-Quevilly",76120,"Rue Paul Vaillant Couturier",,49.41952,1.04833,,,,,,,,,,,,,,,,,,
492993,"Les Arcs",83460,"Rn7 Le Pont D'Argens",,43.44725,6.47302,,,,,,,,,,,,,,,,,,
492992,"Le Castellet",83330,"2617 Route Des Sources",,43.18042,5.77396,,,,,,,,,,,,,,,,,,
492991,"Le Mans",72000,"8 Rue Thomas Edison",,48.025833,0.18081029,,,,,,,,,,,,,,,,,,
492990,"Le Mans",72100,"28 Rue Louis Breguet",,47.97655,0.16664,,,,,,,,,,,,,,,,,,
492989,Lempdes,63370,"79 Av De L'Europe",,45.7766,3.18101,,,,,,,,,,,,,,,,,,
492988,Montpon-Ménestérol,24700,"7 Route De Villefranche",,45.00686,0.14048,,,,,,,,,,,,,,,,,,
492987,"Le Bugue",24260,"1661 Lieudit La Planète Haute",,44.908943,0.92387,,,,,,,,,,,,,,,,,,
492986,Loches,37600,"35 Route De Vauzelles",,47.13422,0.98342,,,,,,,,,,,,,,,,,,
492985,Montmorillon,86500,"114 Avenue Victor Hugo",,46.43045,0.88702,,,,,,,,,,,,,,,,,,
492983,Marseille,13010,"137 Boulevard Pont De Vivaux",,43.28209,5.42327,,,,,,,,,,,,,,,,,,
492982,Marseille,13015,"99 Rue De Lyon",,43.327526,5.362846,,,,,,,,,,,,,,,,,,
492981,"Le Tholonet",13100,"1900 Avenue Paul Jullien",,43.50941,5.4975824,,,,,,,,,,,,,,,,,,
492980,Leucate,11370,"1 Avenue Des Roseaux",,42.854206,3.0345743,,,,,,,,,,,,,,,,,,
492979,Montélimar,26200,"Zone Industrielle Du Meyrol",,44.57937,4.74474,,,,,,,,,,,,,,,,,,
492978,Mèze,34140,"345 Chemin Du Romany",,43.43157,3.59652,,,,,,,,,,,,,,,,,,
492977,Castelnau-Le-Lez,34000,"1376 Avenue De La Pompignane",,43.61792,3.89759,,,,,,,,,,,,,,,,,,
492975,Molsheim,67120,"10 Route Ecospace",,48.53237,7.5001,,,,,,,,,,,,,,,,,,
492974,Marckolsheim,67390,"Rue De L'Ortenbourg",,48.17322,7.54632,,,,,,,,,,,,,,,,,,
492973,Gunsbach,68140,"10 Rue Des Artisans",,48.04244,7.1614,,,,,,,,,,,,,,,,,,
492972,Morestel,38510,"1050 Rue Paul Claudel",,45.67272,5.48342,,,,,,,,,,,,,,,,,,
492971,Montmélian,73800,"Avenue Du Grésivaudan",,45.49624,6.05101,,,,,,,,,,,,,,,,,,
492967,Gattières,06510,"245 Route De La Baronne",,43.76602,7.19772,,,,,,,,,,,,,,,,,,
492966,Hazebrouck,59190,"249 Rue Notre Dame",,50.73784,2.5457838,,,,,,,,,,,,,,,,,,
492965,Eauze,32800,"75 Avenue Des Pyrénées",,43.8523,0.09724,,,,,,,,,,,,,,,,,,
492964,Landivisiau,29400,"137 Avenue Maréchal Foch",,48.51395,-4.0549,,,,,,,,,,,,,,,,,,
492963,Drusenheim,67410,"Route De Herrlisheim",,48.75368,7.94135,,,,,,,,,,,,,,,,,,
492962,Hautmont,59330,"147 Rue De Louvroil",,50.25673,3.93273,,,,,,,,,,,,,,,,,,
492961,Épernay,51200,"Zone D'Activité Les Forges",,49.025803,3.9527047,,,,,,,,,,,,,,,,,,
492960,Jeumont,59460,"155 Rue Victor Basch",,50.30181,4.10352,,,,,,,,,,,,,,,,,,
492959,Frouard,54390,"Rue De La Vallée",,48.74204,6.15153,,,,,,,,,,,,,,,,,,
492958,Givet,08600,"2 Zone D'Activité Communale De La Route De Beauraing",,50.13271,4.8515,,,,,,,,,,,,,,,,,,
492957,Forbach,57600,"Rue Jean Prouvé",,49.17603,6.8773,,,,,,,,,,,,,,,,,,
492956,Landres,54970,"38 Rue De Verdun",,49.31898,5.79695,,,,,,,,,,,,,,,,,,
492955,Fontenay-Le-Vicomte,91540,"Rue De L'Orme",,48.54925,2.4099,,,,,,,,,,,,,,,,,,
492954,Lanvollon,22290,"37 Rue Des Fontaines",,48.631783,-2.9777894,,,,,,,,,,,,,,,,,,
492952,Guer,56380,"25 Avenue Du Général Leclerc",,47.91002,-2.12406,,,,,,,,,,,,,,,,,,
492951,Janzé,35150,"Rue Louis Blériot",,47.956917,-1.4904253,,,,,,,,,,,,,,,,,,
492950,Esbly,77450,"La Prairie 53 Rue Du Mal Joffre",,48.89712,2.81486,,,,,,,,,,,,,,,,,,
492949,Garges-Lès-Gonesse,95140,"Boulevard De La Muette",,48.97369,2.42333,,,,,,,,,,,,,,,,,,
492948,Gainneville,76700,"262 Rue De La Libération",,49.51869,0.27959,,,,,,,,,,,,,,,,,,
492947,Guitrancourt,78440,"2 Route De Meulan, 2",,48.98944,1.76823,,,,,,,,,,,,,,,,,,
492946,Gravigny,27930,"2 Rue De L'Industrie",,49.05444,1.1677,,,,,,,,,,,,,,,,,,
492944,Laroque-D'Olmes,09300,"Avenue Du 11 Novembre 1918",,42.96368,1.86535,,,,,,,,,,,,,,,,,,
492943,Draguignan,83300,"907 Boulevard Léon Gambetta",,43.54648,6.44411,,,,,,,,,,,,,,,,,,
492941,"La Roche-Sur-Yon",85000,"6 François Cevert",,46.69885,-1.4287,,,,,,,,,,,,,,,,,,
492940,"La Roche-Sur-Yon",85000,"2 Impasse Claudius Petit",,46.64659,-1.43437,,,,,,,,,,,,,,,,,,
492939,Gannat,03800,"12 Avenue Des Capucins",,46.10473,3.19683,,,,,,,,,,,,,,,,,,
492938,Issoudun,36100,"Rue Des Coinchettes, 429",,46.95443,2.01121,,,,,,,,,,,,,,,,,,
492937,Gond-Pontouvre,16160,"390 Route De Paris",,45.68174,0.17644,,,,,,,,,,,,,,,,,,
492935,"Lavaur (Tarn)",81500,"367 Avenue De Cocagne",,43.70615,1.80098,,,,,,,,,,,,,,,,,,
492934,Figeac,46100,"23 Avenue Ratier",,44.6038,2.01257,,,,,,,,,,,,,,,,,,
492933,Feurs,42110,"Chemin Des Sables",,45.72632,4.22824,,,,,,,,,,,,,,,,,,
492932,Hœnheim,67800,"Route De Brumath",,48.620182,7.732322,,,,,,,,,,,,,,,,,,
492931,Eschau,67114,"46 Des Fusiliers Marins",,48.48263,7.73061,,,,,,,,,,,,,,,,,,
492930,Viviers-Du-Lac,73420,"169 Avenue Du Golf",,45.66225,5.90963,,,,,,,,,,,,,,,,,,
492923,Calais,62100,"1175 Avenue Roger Salengro",,50.94349,1.82121,,,,,,,,,,,,,,,,,,
492922,Chocques,62920,"628 Rue De Béthune",,50.53884,2.58811,,,,,,,,,,,,,,,,,,
492921,Comines,59560,"224 Rue D'Armentières",,50.75087,2.98384,,,,,,,,,,,,,,,,,,
492920,Capinghem,59160,"31 Rue Du Grand But",,50.64648,2.97379,,,,,,,,,,,,,,,,,,
492919,Bénesse-Maremne,40230,"1453 Route De Capbreton",,43.62902,-1.39188,,,,,,,,,,,,,,,,,,
492918,Brest,29200,"142 Rue Général Paulet",,48.41474,-4.47685,,,,,,,,,,,,,,,,,,
492917,Denain,59220,"Boulevard Anatole France",,50.31766,3.4090621,,,,,,,,,,,,,,,,,,
492915,Créhange,57690,"1 Rue Du Lavoisier",,49.04881,6.5814,,,,,,,,,,,,,,,,,,
492914,Creutzwald,57150,"4 Rue De Grenoble",,49.19216,6.68367,,,,,,,,,,,,,,,,,,
492913,Conflans-En-Jarnisy,54800,"97 Rue De Verdun",,49.16504,5.84602,,,,,,,,,,,,,,,,,,
492912,Douarnenez,29100,"Chemin De Toubalan",,48.090088,-4.3459187,,,,,,,,,,,,,,,,,,
492910,"Servon (Seine Et Marne)",77170,"2 Rue Denis Papin",,48.70137,2.60254,,,,,,,,,,,,,,,,,,
492909,Combourg,35270,"3 Rue Des Coutures",,48.41846,-1.74963,,,,,,,,,,,,,,,,,,
492908,Colombelles,14460,"Rue Du Bocage",,49.18989,-0.30232,,,,,,,,,,,,,,,,,,
492905,Bonneuil-Sur-Marne,94380,"Avenue Robert Hottinguer",,48.758022,2.4833133,,,,,,,,,,,,,,,,,,
492904,Choisy-Le-Roi,94600,"13 Rue Du Four",,48.7545,2.41118,,,,,,,,,,,,,,,,,,
492903,"Chelles (Seine Et Marne)",77500,"7 Bis 9 Avenue De Sylvie",,48.86983,2.59254,,,,,,,,,,,,,,,,,,
492902,Chilly-Mazarin,91380,"8 Route De Massy",,48.7114,2.30591,,,,,,,,,,,,,,,,,,
492901,"Bagneux (Hauts De Seine)",92200,"6 Place Des Bas Longchamps",,48.79007,2.31237,,,,,,,,,,,,,,,,,,
492900,Bagnolet,93170,"40 Avenue Gambetta",,48.86882,2.41559,,,,,,,,,,,,,,,,,,
492899,Colombes,92700,"292 Rue Président Salvador Allende",,48.92136,2.22956,,,,,,,,,,,,,,,,,,
492898,Conches-En-Ouche,27190,"Rue Jacques Prévert",,48.97371,0.94023,,,,,,,,,,,,,,,,,,
492897,Buchelay,78200,"8 Rue Du Lot",,48.99056,1.67494,,,,,,,,,,,,,,,,,,
492896,Beauvais,60000,"190 Avenue Marcel Dassault",,49.4466,2.09464,,,,,,,,,,,,,,,,,,
492895,Champtercier,04000,"Route De Marseille, 7",,44.07007,6.1794,,,,,,,,,,,,,,,,,,
492894,Beaugency,45190,"72 Avenue De Blois",,47.77227,1.62012,,,,,,,,,,,,,,,,,,
492893,Bordeaux,33000,"44 Lucien Faure",,44.86262,-0.55582,,,,,,,,,,,,,,,,,,
492892,Castelnau-De-Médoc,33480,"17 Route D'Avensan",,45.02832,-0.788,,,,,,,,,,,,,,,,,,
492891,"Blanquefort (Gironde)",33290,"161 Avenue Du 11 Novembre",,44.918034,-0.6270647,,,,,,,,,,,,,,,,,,
492890,Cébazat,63100,"Route Départementale 2009",,45.818222,3.113461,,,,,,,,,,,,,,,,,,
492889,Bourges,18000,"Boulevard De L'Avenir",,47.08346,2.38472,,,,,,,,,,,,,,,,,,
492888,Bourgueil,37140,"12 Avenue Jean Causeret",,47.279,0.16742,,,,,,,,,,,,,,,,,,
492887,Châtellerault,86100,"5 Rue René De La Fouchardière",,46.78823,0.52664,,,,,,,,,,,,,,,,,,
492886,Ayguesvives,31450,"Lieu-Dit Labal Prioul, 1",,43.45064,1.59283,,,,,,,,,,,,,,,,,,
492885,Castelnaudary,11400,"Avenue Des Pyrénées",,43.30073,1.95452,,,,,,,,,,,,,,,,,,
492884,"Châteauneuf (Côte D'Or)",76320,"10 Avenue De L'Homme À La Fenêtre",,43.393093,5.144867,,,,,,,,,,,,,,,,,,
492883,Béziers,34500,"Route De Capestang",,43.3362,3.18291,,,,,,,,,,,,,,,,,,
492881,"Beaucaire (Gard)",30300,"18 Zac Des Miliaires Genestet",,43.814613,4.613111,,,,,,,,,,,,,,,,,,
492880,Davézieux,07340,"1169 Route De Lyon",,45.256355,4.696778,,,,,,,,,,,,,,,,,,
492879,Baccarat,54120,"43 Rue Sainte Catherine",,48.45801,6.74006,,,,,,,,,,,,,,,,,,
492878,Chasse-Sur-Rhône,38670,"90 Chemin Des Roues",,45.57674,4.80614,,,,,,,,,,,,,,,,,,
492877,Barr,67140,"22 Route De Sélestat",,48.40038,7.46464,,,,,,,,,,,,,,,,,,
492876,Crolles,38920,"14 Rue Du Moulin",,45.27441,5.88414,,,,,,,,,,,,,,,,,,
492875,Corbenay,70320,"12 Avenue Albert Thomas",,47.88158,6.29814,,,,,,,,,,,,,,,,,,
492873,Cessy,01170,"111 Chemins Du Journan",,46.30293,6.06687,,,,,,,,,,,,,,,,,,
492872,Audruicq,62370,"738 Avenue Des Allies",,50.86934,2.0701327,,,,,,,,,,,,,,,,,,
492871,Aubenas,07200,"Chemin Du Pialon",,44.6131,4.40675,,,,,,,,,,,,,,,,,,
492869,Aire-Sur-L'Adour,40800,"2505 Avenue De Bordeaux",,43.72941,-0.26708,,,,,,,,,,,,,,,,,,
492868,Agneaux,50180,"1752-1754 Route De Coutances",,49.11075,-1.13182,,,,,,,,,,,,,,,,,,
492867,Villemandeur,45200,"646 Rue De Saint Firmin Des Vignes",,47.9779,2.73624,,,,,,,,,,,,,,,,,,
492866,Arras,62000,"193 Avenue Winston Churchill",,50.29923,2.74049,,,,,,,,,,,,,,,,,,
492865,Amiens,80000,"24 Rue D'Australie",,49.90468,2.27478,,,,,,,,,,,,,,,,,,
492864,Alès,30100,"1019 B Ancien Chemin De Mons",,44.1274,4.1072874,,,,,,,,,,,,,,,,,,
492863,Ahuy,21121,"Avenue Général Touzet Du Vigier",,47.354214,5.0354204,,,,,,,,,,,,,,,,,,
492862,Ambérieu-En-Bugey,01500,"70 Avenue De La Libération",,45.96601,5.3388,,,,,,,,,,,,,,,,,,
492335,"Saint-Raphaël (Var)",83700,"803 Boulevard Pierre Delli-Zotti",,43.43558,6.8093514,,,,,,,,,,,,,,,,,,
492334,Corbie,"80 800","20 Rue Léon Curé",,49.910503,2.5032828,,,,,,,,,,,,,,,,,,
492333,Caussade,82300,"Lieu Dit Grimal",,44.14701,1.5233388,,,,,,,,,,,,,,,,,,
492332,Champigny-Sur-Marne,94500,"1388 Rue De Bernau",,48.81604,2.5335727,,,,,,,,,,,,,,,,,,
492330,Bourg-Achard,27310,"Rue Fernand Lefée",,49.358665,0.8151997,,,,,,,,,,,,,,,,,,
492329,Douai,59500,"1090 Boulevard De La République",,50.378185,3.0802393,,,,,,,,,,,,,,,,,,
492328,Troyes,10000,"12 Boulevard Georges Pompidou",,48.286995,4.080676,,,,,,,,,,,,,,,,,,
492327,Feignies,59750,"32 Rue Lempereur",,50.278828,3.9257457,,,,,,,,,,,,,,,,,,
492253,Marquise,62250,"291 Avenue Ferber",,50.82392,1.70615,,,,,,,,,,,,,,,,,,
492252,"Decines Charpieu",69150,"227 Avenue Franklin Roosevelt",,45.74589,4.9342103,,,,,,,,,,,,,,,,,,
492251,Cluses,74300,"350 Avenue De Châtillon",,46.068615,6.5845394,,,,,,,,,,,,,,,,,,
492250,Mont-De-Marsan,40000,"1361 Avenue Du Marechal Juin",,43.9054,-0.47551805,,,,,,,,,,,,,,,,,,
492249,Saumur,49400,"84Bis Rue De Rouen",,47.271614,-0.06432638,,,,,,,,,,,,,,,,,,
492248,"Beaurepaire (Isère)",38270,"1304 Route De Beaurepaire",,45.340473,5.064636,,,,,,,,,,,,,,,,,,
492089,"Torcy (Saône Et Loire)",71210,"60 Rue D'Autun",,46.76777,4.4503603,,,,,,,,,,,,,,,,,,
492088,Morlaix,29600,"Rue Léonard De Vinci",,48.59143,-3.8256524,,,,,,,,,,,,,,,,,,
492085,Auby,59950,"1 Rue Kamal Toukal",,50.42563,3.0589454,,,,,,,,,,,,,,,,,,
492084,Pouzauges,85700,"Avenue Des Sables",,46.7783,-0.84855,,,,,,,,,,,,,,,,,,
492083,Saint-Jean-D'Illac,33127,"Rue Dauphine, 79",,44.81294,-0.74517,,,,,,,,,,,,,,,,,,
492082,Mulhouse,68100,"22 Rue De Thann",,47.747528,7.308222,,,,,,,,,,,,,,,,,,
492081,Bischheim,67800,"1 Avenue De L'Energie",,48.63066,7.7661834,,,,,,,,,,,,,,,,,,
492013,Joigny,89300,"9001 Rue Des Entrepreneurs",,47.978794,3.3814,,,,,,,,,,,,,,,,,,
492012,Saint-Lizier,09190,"Route De Toulouse",,43.004658,1.1289877,,,,,,,,,,,,,,,,,,
492011,"Boussy St Antoine",91800,"Le Clos D'Auchin",,48.678497,2.5281422,,,,,,,,,,,,,,,,,,
492010,"Vitrolles (Bouches Du Rhône)",13127,"1 Avenue Jean Monnet",,43.42321,5.2866106,,,,,,,,,,,,,,,,,,
492009,Graulhet,81300,"Boulevard Georges Ravari",,43.766453,1.9793617,,,,,,,,,,,,,,,,,,
492008,Coursan,11110,"55 Avenue De Toulouse",,43.229313,3.049752,,,,,,,,,,,,,,,,,,
492007,Vitry-Le-François,51300,"30 Route De Vitry En Perthois",,48.7313,4.598903,,,,,,,,,,,,,,,,,,
492006,Lannoy,59390,"100 Rue Stein Boutemy",,50.66848,3.2092597,,,,,,,,,,,,,,,,,,
492005,Cambrai,59400,"68 Avenue De Valenciennes",,50.180256,3.2482173,,,,,,,,,,,,,,,,,,
492004,"Achères (Yvelines)",78260,"26 Rue Des Communes",,48.962833,2.0593853,,,,,,,,,,,,,,,,,,
492003,Bellac,87300,"9 Avenue René Coty",,46.127163,1.0536863,,,,,,,,,,,,,,,,,,
490932,Gressy,77410,"10 Rue Ernest Sarron",,48.952366,2.6673188,,,,,,,,,,,,,,,,,,
490931,Mauguio,34130,"42 Route De Baillargues",,43.62504,4.011839,,,,,,,,,,,,,,,,,,
489662,Marmoutier,67440,"1004 Rd",,48.70673,7.3725,,,,,,,,,,,,,,,,,,
489661,Cornebarrieu,31700,"Avenue De Toulouse",,43.651657,1.3286517,,,,,,,,,,,,,,,,,,
489536,Marseille,13012,"148 Avenue Des Peintres Roux",,43.30055,5.475393,,,,,,,,,,,,,,,,,,
489535,Yvré-L'Évêque,72530,"23 Route De Paris",,48.001823,0.24578775,,,,,,,,,,,,,,,,,,
488427,Coutances,50200,"41 Avenue De La Division Leclerc",,49.05798,-1.4383,,,,,,,,,,,,,,,,,,
488426,Paris,75013,"58 Rue Du Dessous Des Berges",,48.827515,2.3747067,,,,,,,,,,,,,,,,,,
488425,Saint-Amand-Les-Eaux,59230,"125 Rue Henri Durre",,50.4407,3.4291196,,,,,,,,,,,,,,,,,,
488267,Freyming-Merlebach,57800,"2 Rue De Metz",,49.14205,6.813437,,,,,,,,,,,,,,,,,,
488266,Tonneins,47400,"Avenue Pierre Mendès France",,44.39839,0.30109817,,,,,,,,,,,,,,,,,,
488265,Breuil-Magné,17300,"17 Avenue Colonel Fuller",,45.949883,-0.9417208,,,,,,,,,,,,,,,,,,
486416,Perpignan,66000,"1850 Avenue Du Languedoc",,42.73754,2.89205,,,,,,,,,,,,,,,,,,
486415,Beaune,21200,"7 Rue Des Vérottes",,47.02255,4.83138,,,,,,,,,,,,,,,,,,
486414,Autun,71400,"94 Avenue De La République",,46.962322,4.3117065,,,,,,,,,,,,,,,,,,
486413,Charmes,88130,"55 Rue René Didierjean",,48.369644,6.281657,,,,,,,,,,,,,,,,,,
486403,Hesdigneul-Lès-Béthune,62700,"1050 Rue Eric Tabarly",,50.49104,2.58572,,,,,,,,,,,,,,,,,,
486402,Brive-La-Gaillarde,19100,"39 Avenue Abbe Jean Alvitre",,45.152905,1.5093644,,,,,,,,,,,,,,,,,,
486401,Annemasse,74100,"18 18 Roue Des Vallées",,46.193073,6.2424994,,,,,,,,,,,,,,,,,,
486279,Neufchâteau,88300,"930 Avenue De La Division Leclerc",,48.36768,5.70394,,,,,,,,,,,,,,,,,,
486277,Sarre-Union,67260,"51 Rue De Phalsbourg",,48.93348,7.0900607,,,,,,,,,,,,,,,,,,
486276,Sélestat,67600,"32 Route De Colmar",,48.25203,7.4386344,,,,,,,,,,,,,,,,,,
486275,Lourdes,65100,"45A Avenue Alexandre Marquis",,43.106308,-0.03976548,,,,,,,,,,,,,,,,,,
486274,"La Ciotat",13600,"87 Chemin De La Pépinière",,43.1894,5.602282,,,,,,,,,,,,,,,,,,
486272,Calais,62100,"367 Avenue De Saint Exupery",,50.948036,1.9176644,,,,,,,,,,,,,,,,,,
486270,Marolles-En-Hurepoix,91630,"Rue Panhard Et Levassor",,48.578434,2.2968605,,,,,,,,,,,,,,,,,,
486258,Cherbourg-Octeville,50100,"55 Avenue Amiral Lemonnier",,49.634327,-1.6057631,,,,,,,,,,,,,,,,,,
486257,Vizille,38220,"151 Rue Des Forges",,45.07773,5.7682753,,,,,,,,,,,,,,,,,,
486208,Saint-Étienne,42000,"2 Rue Marcel Proust",,45.40669,4.3825,,,,,,,,,,,,,,,,,,
486207,Firminy,42700,"1 Rue De L'Alcazar",,45.395966,4.2923784,,,,,,,,,,,,,,,,,,
486206,Gap,05000,"90 Avenue D'Embrun",,44.568344,6.101301,,,,,,,,,,,,,,,,,,
486205,Metz,57070,"43 Rue Des Drapiers",,49.11744,6.24905,,,,,,,,,,,,,,,,,,
486204,Hettange-Grande,57330,"3 Rue Charles Ferdinand",,49.414726,6.1383014,,,,,,,,,,,,,,,,,,
486203,Bagnères-De-Luchon,31110,"18 Rue Clément Ader",,42.79816,0.59780145,,,,,,,,,,,,,,,,,,
486202,"Vire (Calvados)",14500,"45 Rue De Caen",,48.85771,-0.87831,,,,,,,,,,,,,,,,,,
486201,Laon,02000,"161 Avenue Pierre Mendès France",,49.580383,3.6440096,,,,,,,,,,,,,,,,,,
486199,Paris,75014,"210-212 Avenue Du Maine",,48.829723,2.3257546,,,,,,,,,,,,,,,,,,
478463,Langres,52200,"34 Route De Dijon",,47.84252,5.33258,,,,,,,,,,,,,,,,,,
478458,Neuville-De-Poitou,86170,"41 Rue Alphonse Plault",,46.684113,0.25315747,,,,,,,,,,,,,,,,,,
478453,Mehun-Sur-Yèvre,18500,"118R Avenue Raoul Aladenize",,47.14143,2.23658,,,,,,,,,,,,,,,,,,
476508,Blaye,33390,"Lieudit Chardonnet",,45.12934,-0.64764,,,,,,,,,,,,,,,,,,
476503,Seclin,59113,"30 Route De Lille",,50.558434,3.035019,,,,,,,,,,,,,,,,,,
474758,Écouis,27440,"Route Nationale 14",,49.307606,1.4397552,,,,,,,,,,,,,,,,,,
474753,Dreux,28100,"122 Avenue Du Général Leclerc",,48.742317,1.3892436,,,,,,,,,,,,,,,,,,
474573,Bachant,59138,"5 Rue De Maubeuge",,50.206875,3.8524003,,,,,,,,,,,,,,,,,,
474403,Orange,84100,"105 Avenue De L'Europe",,44.119106,4.841538,,,,,,,,,,,,,,,,,,
474398,Châteaubernard,16100,"60 Avenue D Angoulême",,45.6831,-0.29896778,,,,,,,,,,,,,,,,,,
473278,Albert,80300,"178 Avenue Du Général Faidherbe",,50.008057,2.6671607,,,,,,,,,,,,,,,,,,
465233,Vichy,03200,"41 Avenue Poincaré",,46.11425,3.4387548,,,,,,,,,,,,,,,,,,
465228,Somain,59490,"39 Boulevard Louise Michel",,50.355087,3.283884,,,,,,,,,,,,,,,,,,
458358,Moult,14370,"146 Lieu-Dit La Haye Au Blanc",,49.11911,-0.18672,,,,,,,,,,,,,,,,,,
458353,Châtillon-En-Michaille,01200,"1792 Route De La Plaine",,46.12961,5.811532,,,,,,,,,,,,,,,,,,
456748,Valognes,50700,"56 Boulevard Félix Buhot",,49.511795,-1.4762464,,,,,,,,,,,,,,,,,,
456738,Guebwiller,68500,"2 Route D'Issenheim",,47.90291,7.2290745,,,,,,,,,,,,,,,,,,
456733,Joué-Lés-Tours,37300,"195 Boulevard Jean Jaurès",,47.347584,0.6499956,,,,,,,,,,,,,,,,,,
456728,Albi,81000,"151 Avenue François Verdier",,43.919006,2.1262918,,,,,,,,,,,,,,,,,,
453158,Metz,57070,"Boulevard De L'Europe",,49.117958,6.1977243,,,,,,,,,,,,,,,,,,
453148,Blagnac,31700,"255 Route De Grenade",,43.64779,1.3826075,,,,,,,,,,,,,,,,,,
453093,Saint-Berthevin,53940,"5 Rue Albert Thomas",,48.06793,-0.80390286,,,,,,,,,,,,,,,,,,
453068,"La Ferté-Bernard",72400,"41 Avenue Du Général De Gaulle",,48.18013,0.65517837,,,,,,,,,,,,,,,,,,
451118,Arpajon,91290,"18-20 Route De Limours",,48.599976,2.241083,,,,,,,,,,,,,,,,,,
451113,Hirson,02500,"221 Avenue Des Champs Elysées",,49.911324,4.0926976,,,,,,,,,,,,,,,,,,
451108,Louviers,27400,"41 Avenue Winston Churchill",,49.225548,1.1673949,,,,,,,,,,,,,,,,,,
445090,Bletterans,39140,"20 Avenue Jean De Chalon D'Arlay",,46.747612,5.4644423,,,,,,,,,,,,,,,,,,
444875,Harfleur,76700,"12 Rue Friedrich Engels",,49.514908,0.19538,,,,,,,,,,,,,,,,,,
444870,Yvetot,76190,"Boulevard Commandant Bichot",,49.607513,0.76688373,,,,,,,,,,,,,,,,,,
444825,Romans-Sur-Isère,26100,"8 Avenue Des Allobroges",,45.050877,5.082115,,,,,,,,,,,,,,,,,,
444820,Condom,32100,"39 Avenue Des Pyrenees",,43.950348,0.37061104,,,,,,,,,,,,,,,,,,
442055,Saint-Maixent-L'École,79400,"Za L'Hommeraie",,46.406464,-0.22287594,,,,,,,,,,,,,,,,,,
442030,"Le Kremlin-Bicêtre",94270,"27-29 Avenue De Fontainebleau",,48.813984,2.3614347,,,,,,,,,,,,,,,,,,
442025,Ingré,45140,"22 Avenue Pierre Mendès France",,47.902122,1.8570751,,,,,,,,,,,,,,,,,,
442020,Poitiers,86000,"27 Rue De Bignoux",,46.585106,0.3676921,,,,,,,,,,,,,,,,,,
442015,Bressuire,79300,"51 Boulevard De Poitiers",,46.837975,-0.48453334,,,,,,,,,,,,,,,,,,
431585,"Pierrefitte (Creuse)",93380,"58/64 Boulevard Jean Mermoz",,48.966198,2.3652923,,,,,,,,,,,,,,,,,,
431580,Aubervilliers,93300,"34 Rue De Saint Denis",,48.921104,2.3776774,,,,,,,,,,,,,,,,,,
431575,Nogent-Sur-Oise,60180,"51 Rue Gambetta",,49.271225,2.4701707,,,,,,,,,,,,,,,,,,
431570,Chevilly-Larue,94246,"45 Avenue Du Général Leclerc",,48.772392,2.3470933,,,,,,,,,,,,,,,,,,
418060,Bully-Les-Mines,62160,"110 Rue Du 18 Novembre 1869",,50.448673,2.7218678,,,,,,,,,,,,,,,,,,
418055,Wattrelos,59150,"114 Boulevard Des Couteaux",,50.71152,3.1771872,,,,,,,,,,,,,,,,,,
418050,Houdemont,54180,"Allée Du Pâquis Rn57, Lieu Dit La Fosse",,48.64611,6.1832976,,,,,,,,,,,,,,,,,,
377850,Gruissan,11430,"5 Avenue Des Ayguades De Pech Rouge",,43.11758,3.105557,,,,,,,,,,,,,,,,,,
368760,"Le Cannet",06110,"147 Avenue Michel Jourdan",,43.56119,6.9659166,,,,,,,,,,,,,,,,,,
368740,Thiers,63300,"51-55 Avenue Léo Lagrange",,45.848114,3.5307333,,,,,,,,,,,,,,,,,,
367535,Golbey,88190,"63 Rue Du Général Leclerc",,48.190266,6.424562,,,,,,,,,,,,,,,,,,
367290,Calonne-Ricouart,62470,"102 Rue De La Marne",,50.4934,2.4852312,,,,,,,,,,,,,,,,,,
367275,Wissembourg,67160,"4 Allée Des Peupliers",,49.030388,7.954507,,,,,,,,,,,,,,,,,,
367230,Saint-Junien,87200,"24 Avenue D'Oradour Sur Glane",,45.898666,0.9174642,,,,,,,,,,,,,,,,,,
302355,Saint-Brevin-Les-Pins,44250,"1 Paul Caniot",,47.24182,-2.155426,,,,,,,,,,,,,,,,,,
302350,Osny,95520,"21 Rue Du Petit Albi",,49.057648,2.0321243,,,,,,,,,,,,,,,,,,
302345,Fismes,51170,"52 Route De Soissons",,49.30899,3.6675959,,,,,,,,,,,,,,,,,,
302340,Woippy,57140,"56 Avenue De Thionville",,49.149876,6.1589293,,,,,,,,,,,,,,,,,,
7470,Querqueville,50120,"Boulevard Du Général De Gaulle",,49.66076,-1.6821,,,,,,,,,,,,,,,,,,
7462,"Les Pieux",50340,"18 Zone Industrielle Des Costils",,49.51645,-1.793222,,,,,,,,,,,,,,,,,,
7457,Carentan,50500,"Route De St Côme",,49.309402,-1.2563133,,,,,,,,,,,,,,,,,,
7453,Pouzac,65200,"Les Anous",,43.07725,0.14101318,,,,,,,,,,,,,,,,,,
7452,Lannemezan,65300,"199 Boulevard Du Général De Gaulle",,43.121067,0.38535696,,,,,,,,,,,,,,,,,,
7450,Montréjeau,31210,"7 Avenue De St Gaudens",,43.085964,0.5726253,,,,,,,,,,,,,,,,,,
7447,Saint-Gaudens,31800,"Rue Jean Suberville",,43.112167,0.7412984,,,,,,,,,,,,,,,,,,
7435,Gravelines,59820,"1 Route De Calais",,50.986107,2.1188238,,,,,,,,,,,,,,,,,,
7430,Oye-Plage,62215,"Avenue Paul Machy, 82",,50.979343,2.0469182,,,,,,,,,,,,,,,,,,
7425,Coquelles,62231,"Place De Cantorbery",,50.937546,1.811477,,,,,,,,,,,,,,,,,,
7423,Calais,62100,"688 Quai Gustave Lamarle",,50.93923,1.8688757,,,,,,,,,,,,,,,,,,
7422,Guînes,62340,"Zae Du Moulin À Huile",,50.862576,1.8865254,,,,,,,,,,,,,,,,,,
7413,Bar-Sur-Aube,10200,"7 Route De Chaumont",,48.227406,4.715205,,,,,,,,,,,,,,,,,,
7412,Tonnerre,89700,"12 Rue Du Cottage",,47.853516,3.9839027,,,,,,,,,,,,,,,,,,
7407,Avallon,89200,"11 Route De Pontaubert",,47.496025,3.8974762,,,,,,,,,,,,,,,,,,
7405,Montier-En-Der,52220,"47 Rue Des Ponts-Lieu Dit Les Patis",,48.474407,4.767168,,,,,,,,,,,,,,,,,,
7402,Joinville,52300,"11 Avenue De Lorraine",,48.443558,5.1469765,,,,,,,,,,,,,,,,,,
7397,Commercy,55200,"112 Rue Du 155Eme Régiment Infanterie",,48.753773,5.5966034,,,,,,,,,,,,,,,,,,
7390,Toul,54200,"Rue Paul Keller",,48.67175,5.890588,,,,,,,,,,,,,,,,,,
7387,Toul,54200,"40 Rue De Verdun",,48.69003,5.90191,,,,,,,,,,,,,,,,,,
7382,Frouard,54390,"35 Rue De Metz",,48.759266,6.133694,,,,,,,,,,,,,,,,,,
7380,Dieulouard,54380,"9001 Rue Emile Gallé",,48.83043,6.0674295,,,,,,,,,,,,,,,,,,
7378,Pont-À-Mousson,54700,"Avenue Georges Guynemer, 1B",,48.91635,6.0618095,,,,,,,,,,,,,,,,,,
7375,Château-Salins,57170,"14 Avenue Napoléon 1Er",,48.81819,6.514462,,,,,,,,,,,,,,,,,,
7372,Jury,57245,"1 Rue Fontaine À L'Auge",,49.067066,6.246496,,,,,,,,,,,,,,,,,,
7360,Baronville,57340,"11 Route De Morhange",,48.93086,6.6110144,,,,,,,,,,,,,,,,,,
7357,Courcelles-Chaussy,57530,"1 Rue Du Patural",,49.111298,6.390708,,,,,,,,,,,,,,,,,,
7350,Boulay-Moselle,57220,"3 Rue Victor Muller",,49.180824,6.4859324,,,,,,,,,,,,,,,,,,
7348,Longeville-Lès-Saint-Avold,57740,"5 Rue Du Général De Gaulle",,49.116356,6.6457925,,,,,,,,,,,,,,,,,,
7342,Drulingen,67320,"26 Rue De Weyer",,48.863575,7.1839843,,,,,,,,,,,,,,,,,,
7322,Bouzonville,57320,"62 Route De Sarrlouis",,49.292362,6.5417986,,,,,,,,,,,,,,,,,,
7308,Hambach,57910,"4 Rue Des Artisans",,49.049114,7.0296917,,,,,,,,,,,,,,,,,,
7303,Ingwiller,67340,"Rue Des Entrepreneurs, 1",,48.86478,7.4696794,,,,,,,,,,,,,,,,,,
7297,Forbach,57600,"Rue De Schoeneck",,49.190624,6.9061003,,,,,,,,,,,,,,,,,,
7287,Forbach,57600,"Rue Saint Guy",,49.196453,6.93274,,,,,,,,,,,,,,,,,,
7285,Sarreguemines,57200,"16 Rue Des Ormes",,49.117393,7.0880375,,,,,,,,,,,,,,,,,,
7283,Rohrbach-Lès-Bitche,57410,"Rue De Strasbourg",,49.04595,7.2773547,,,,,,,,,,,,,,,,,,
7282,Reichshoffen,67110,"14 Rue De Haguenau",,48.929375,7.6682253,,,,,,,,,,,,,,,,,,
7277,Bitche,57230,"7 Rue De La Gare",,49.049084,7.431455,,,,,,,,,,,,,,,,,,
7267,Ploudalmézeau,29830,"Zone De Keruscat",,48.53756,-4.6682982,,,,,,,,,,,,,,,,,,
7262,Saint-Renan,29290,"Rue Du Pont De Bois",,48.433,-4.619569,,,,,,,,,,,,,,,,,,
7257,"Le Folgoët",29260,"Route De Lannilis",,48.564274,-4.3459554,,,,,,,,,,,,,,,,,,
7255,Plabennec,29860,"4 Route Du Narret",,48.493317,-4.433563,,,,,,,,,,,,,,,,,,
7254,Saint-Pol-De-Léon,29250,"Lieu-Dit Lanvalou",,48.67009,-3.98736,,,,,,,,,,,,,,,,,,
7250,Plouzané,29280,"Route De Trémaïdic",,48.376232,-4.5982375,,,,,,,,,,,,,,,,,,
7248,Brest,29000,"137 Boulevard De Plymouth",,48.384968,-4.5287023,,,,,,,,,,,,,,,,,,
7243,Saint-Quay-Perros,22700,"2 Rue François Allain",,48.78753,-3.4478755,,,,,,,,,,,,,,,,,,
7237,Brest,29200,"1 Place De Strasbourg",,48.403076,-4.4681206,,,,,,,,,,,,,,,,,,
7232,Guipavas,29490,"126 Boulevard De Coataudon",,48.41501,-4.44281,,,,,,,,,,,,,,,,,,
7227,Minihy-Tréguier,22220,"Zone Commerciale De Kerfolic",,48.77688,-3.2444,,,,,,,,,,,,,,,,,,
7223,Lannion,22300,"Rue Madeleine",,48.733242,-3.4405239,,,,,,,,,,,,,,,,,,
7222,Landerneau,29800,"1 Allée Du Bois Noir",,48.446228,-4.268908,,,,,,,,,,,,,,,,,,
7212,Plougastel-Daoulas,29470,"Zac Ty Ar Menez",,48.38402,-4.35113,,,,,,,,,,,,,,,,,,
7207,Paimpol,22500,"Rue Raymond Pellier",,48.76823,-3.0391355,,,,,,,,,,,,,,,,,,
7192,Crozon,29160,"Lieu-Dit Penandreff",,48.24963,-4.47044,,,,,,,,,,,,,,,,,,
7182,Saint-Vigor-Le-Grand,14400,"Rue D Esquay Sur Seulles",,49.2747,-0.68630874,,,,,,,,,,,,,,,,,,
7177,Courseulles-Sur-Mer,14470,"Route De Reviers",,49.32106,-0.45581928,,,,,,,,,,,,,,,,,,
7172,Saint-Manvieu-Norrey,14740,"2 Route De Caen",,49.18176,-0.4894771,,,,,,,,,,,,,,,,,,
7162,Caen,14000,"57 Avenue De Tourville",,49.184998,-0.34916636,,,,,,,,,,,,,,,,,,
7157,Cormelles-Le-Royal,14123,"14 Rte De Falaise",,49.153297,-0.34165335,,,,,,,,,,,,,,,,,,
7153,"Villers-Bocage (Calvados)",14310,"Allée Des Chataigniers",,49.073162,-0.652034,,,,,,,,,,,,,,,,,,
7152,Saint-Martin-De-Fontenay,14320,"Rue Alfred Lefevre",,49.119858,-0.37468657,,,,,,,,,,,,,,,,,,
7147,Thury-Harcourt,14220,"Rue De Falaise",,48.97991,-0.4699398,,,,,,,,,,,,,,,,,,
7142,Audierne,29770,"Lieu-Dit Kerivoas",,48.02666,-4.5552955,,,,,,,,,,,,,,,,,,
7132,Châteaulin,29150,"66P Za De Penn Ar Roz",,48.21126,-4.05687,,,,,,,,,,,,,,,,,,
7127,Pleyben,29190,"Route De Kerflouz",,48.22358,-3.9693906,,,,,,,,,,,,,,,,,,
7122,Quimper,29000,"37 Avenue De La Libération",,47.991493,-4.0747733,,,,,,,,,,,,,,,,,,
7117,Pont-L'Abbé,29720,"Za De Brénanvec Nevez",,47.871754,-4.238071,,,,,,,,,,,,,,,,,,
7112,Plomeur,29120,"Lieu-Dit Pendreff",,47.819817,-4.2867146,,,,,,,,,,,,,,,,,,
7092,Carhaix-Plouguer,29270,"Route De Callac",,48.284428,-3.5632155,,,,,,,,,,,,,,,,,,
7087,Concarneau,29900,"2 Rue Pennanguer",,47.901447,-3.912062,,,,,,,,,,,,,,,,,,
7082,Rosporden,29140,"Lieu Dit Dioulan",,47.96421,-3.8532476,,,,,,,,,,,,,,,,,,
7077,Étables-Sur-Mer,22680,"Rue De La Roche Garde",,48.642296,-2.8373413,,,,,,,,,,,,,,,,,,
7072,Trégunc,22910,"Rue De Kerambourg",,47.856186,-3.858529,,,,,,,,,,,,,,,,,,
7067,Villedieu-Les-Poêles,50800,"10 Rue De La Hervière",,48.850094,-1.2108338,,,,,,,,,,,,,,,,,,
7062,Granville,50400,"53 Avenue Aristide Briand",,48.83617,-1.5820512,,,,,,,,,,,,,,,,,,
7047,Erquy,22430,"Lieu-Dit Les Jeannettes",,48.621765,-2.4409592,,,,,,,,,,,,,,,,,,
7042,Saint-Brieuc,22000,"2 Rue Chaptal",,48.512733,-2.738379,,,,,,,,,,,,,,,,,,
7037,Quintin,22800,"22 Rue De La Corderie",,48.408325,-2.9170408,,,,,,,,,,,,,,,,,,
7032,Fenouillet,31140,"103 Route De Paris",,43.68885,1.4063517,,,,,,,,,,,,,,,,,,
7027,Quimperlé,29130,"Rue De Pont Aven",,47.86208,-3.53042,,,,,,,,,,,,,,,,,,
7022,Saint-Malo,35400,"10 Rue Croix Désilles",,48.65232,-1.9715894,,,,,,,,,,,,,,,,,,
7017,Saint-Malo,35400,"22 Rue D'Alsace",,48.644672,-2.0033123,,,,,,,,,,,,,,,,,,
7012,"La Richardais",35780,"39 Rue De La Ville Biais",,48.614956,-2.0566125,,,,,,,,,,,,,,,,,,
7010,Lamballe,22400,"2 Parc Activité Lanjouan",,48.48186,-2.49911,,,,,,,,,,,,,,,,,,
7007,Pluduno,22130,"Route De Quiberon",,48.525085,-2.2492168,,,,,,,,,,,,,,,,,,
7002,Guidel,56520,"Lieu-Dit Les Cinq Chemins",,47.79939,-3.4755204,,,,,,,,,,,,,,,,,,
6987,Lorient,56100,"16 Boulevard Du Scorff",,47.761215,-3.3668866,,,,,,,,,,,,,,,,,,
6982,Taden,22100,"5 Rue Des Folies D'Ahaut",,48.475525,-2.0440304,,,,,,,,,,,,,,,,,,
6977,Lanester,56600,"Zi De Kerpont",,47.779526,-3.3405108,,,,,,,,,,,,,,,,,,
6972,Quévert,22100,"13 Rue De Cassepot",,48.447277,-2.071047,,,,,,,,,,,,,,,,,,
6967,Loudéac,22600,"Parc Commercial De Ker D'Hervé",,48.19321,-2.7642717,,,,,,,,,,,,,,,,,,
6962,Hennebont,56700,"Zone De La Gardeloup",,47.799797,-3.261494,,,,,,,,,,,,,,,,,,
6958,Locmiquélic,56570,"781 Route Départementale",,47.726532,-3.3240705,,,,,,,,,,,,,,,,,,
6957,Pontivy,56300,"Avenue Des Cités Unies",,48.055157,-2.949891,,,,,,,,,,,,,,,,,,
6952,Baud,56150,"Lieu-Dit Kermestré",,47.885105,-3.0122235,,,,,,,,,,,,,,,,,,
6942,Pluvigner,56330,"Rue Du Chateau",,47.774986,-3.0053506,,,,,,,,,,,,,,,,,,
6937,Moréac,56500,"Zone Keranna - Kerabus",,47.89953,-2.8380506,,,,,,,,,,,,,,,,,,
6927,Carnac,56340,"42 Rue St Cornely",,47.58556,-3.084091,,,,,,,,,,,,,,,,,,
6922,Auray,56400,"1 Rue D'Irlande",,47.664433,-3.0071127,,,,,,,,,,,,,,,,,,
6917,Quiberon,56170,"Avenue Du Général De Gaulle",,47.490047,-3.1220615,,,,,,,,,,,,,,,,,,
6912,Vannes,56000,"15 Rue Aristide Boucicaut",,47.669228,-2.7953718,,,,,,,,,,,,,,,,,,
6902,Séné,56860,"47 Route De Nantes",,47.651825,-2.7314425,,,,,,,,,,,,,,,,,,
6897,Sarzeau,56370,"Za De Kerollaire",,47.521458,-2.7836835,,,,,,,,,,,,,,,,,,
6892,Caen,14000,"10 Rue De La Haye Mariaise",,49.203922,-0.34893596,,,,,,,,,,,,,,,,,,
6887,"Mondeville (Calvados)",14120,"15 Rue Charles Coulomb",,49.168655,-0.3180137,,,,,,,,,,,,,,,,,,
6882,Boulogne-Sur-Mer,62200,"2 Rue Du Chemin Vert",,50.73584,1.61147,,,,,,,,,,,,,,,,,,
6867,Outreau,62230,"3 Rue Edouard Vaillant",,50.696644,1.604328,,,,,,,,,,,,,,,,,,
6857,Ouistreham,14150,"Route De Caen",,49.269264,-0.25894812,,,,,,,,,,,,,,,,,,
6852,"Dives Sur Mer",14160,"Rue Du Général De Gaulle",,49.28594,-0.10982151,,,,,,,,,,,,,,,,,,
6847,Étaples,62630,"133 Route De Boulogne",,50.51533,1.6467488,,,,,,,,,,,,,,,,,,
6837,Touques,14800,"Rue De La Vallée D' Auge",,49.34611,0.095107086,,,,,,,,,,,,,,,,,,
6827,Berck,62600,"Rue Des Argousiers, 6",,50.403038,1.5970544,,,,,,,,,,,,,,,,,,
6822,Lisieux,14100,"Avenue Georges Duval",,49.145767,0.2715973,,,,,,,,,,,,,,,,,,
6817,Harfleur,76610,"38 Avenue Du 8 Mai 1945",,49.51455,0.16624857,,,,,,,,,,,,,,,,,,
6807,Honfleur,14600,"Cour Jean De Vienne",,49.41576,0.2451724,,,,,,,,,,,,,,,,,,
6802,Rue,80120,"47 Route Du Crotoy",,50.26425,1.6676595,,,,,,,,,,,,,,,,,,
6797,Menneval,27300,"Le Pré Hardy",,49.10947,0.6165873,,,,,,,,,,,,,,,,,,
6792,Saint-Léonard,76400,"Hameau Le Ramponneau",,49.74211,0.37027478,,,,,,,,,,,,,,,,,,
6787,Beaumont-Le-Roger,27170,"16 Rue Aristide Briand",,49.07727,0.77169216,,,,,,,,,,,,,,,,,,
6782,Saint-Valery-Sur-Somme,80230,"44 Allées Des Salicornes",,50.173656,1.6352663,,,,,,,,,,,,,,,,,,
6777,Pont-Audemer,27500,"D 139 Route De Lisieux",,49.348736,0.5173813,,,,,,,,,,,,,,,,,,
6772,Gruchet-Le-Valasse,76210,"Rue De Abbaye",,49.5527,0.4901112,,,,,,,,,,,,,,,,,,
6768,Notre-Dame-De-Gravenchon,76330,"22 Rue Raoul Dufy",,49.486168,0.58099973,,,,,,,,,,,,,,,,,,
6767,Eu,76260,"128 Chaussée Picardie",,50.05467,1.4240135,,,,,,,,,,,,,,,,,,
6752,Luneray,76810,"Rue De La République",,49.8322,0.91583,,,,,,,,,,,,,,,,,,
6747,Dieppe,76270,"Rue Charles Nicolle",,49.9242,1.1112044,,,,,,,,,,,,,,,,,,
6742,Saint-Wandrille-Rançon,76490,"1 Route Du Bac",,49.501034,0.7887507,,,,,,,,,,,,,,,,,,
6737,Saint-Ouen-De-Thouberville,27310,"Route Nationale, 175",,49.356777,0.8893322,,,,,,,,,,,,,,,,,,
6727,Saint-Pierre-Lès-Elbeuf,76320,"17 Bis Rue De La République",,49.276066,1.0316869,,,,,,,,,,,,,,,,,,
6722,Grand-Couronne,76530,"4 Rue Léon Blum",,49.36377,1.0146841,,,,,,,,,,,,,,,,,,
6717,Barentin,76360,"23 Rue Pierre Et Marie Curie",,49.53561,0.96059793,,,,,,,,,,,,,,,,,,
6712,Pîtres,27590,"71 Rue De La Salle",,49.323868,1.2193056,,,,,,,,,,,,,,,,,,
6702,Canteleu,76380,"Ancienne Route De Duclair",,49.44741,1.0265714,,,,,,,,,,,,,,,,,,
6688,Rouen,76100,"16 Rue Malherbe",,49.43492,1.0843174,,,,,,,,,,,,,,,,,,
6687,Haulmé,76770,"161 Bis Rue Du Général De Gaulle",,49.511036,1.0384767,,,,,,,,,,,,,,,,,,
6672,Bois-Guillaume-Bihorel,76230,"56 Rue Victor Hugo",,49.476902,1.1073598,,,,,,,,,,,,,,,,,,
6662,Grigneuseville,76850,"Rue Jeanne La Lorraine",,49.63317,1.1734842,,,,,,,,,,,,,,,,,,
6657,Saint-Julien-Lès-Metz,57070,"1 Impasse De Bouzonville",,49.137657,6.217803,,,,,,,,,,,,,,,,,,
6652,Pagny-Sur-Moselle,54530,"53 E Rue Anatole France",,48.99251,6.027376,,,,,,,,,,,,,,,,,,
6642,Montigny-Lès-Metz,57155,"3 Rue De La Ferme St Ladre",,49.08311,6.146532,,,,,,,,,,,,,,,,,,
6637,Longeville-Lès-Metz,57050,"29 Boulevard Saint-Symphorien",,49.11264,6.157376,,,,,,,,,,,,,,,,,,
6632,Moulins-Lès-Metz,57160,"Route De Jouy",,49.088184,6.122559,,,,,,,,,,,,,,,,,,
6630,Moulins-Lès-Metz,57130,"54 Rue De Metz",,49.070625,6.0891232,,,,,,,,,,,,,,,,,,
6622,Saint-Pol-Sur-Mer,59430,"59 Avenue Berteaux",,51.0282,2.3516352,,,,,,,,,,,,,,,,,,
6617,"Abbeville (Somme)",80100,"Avenue Robert Schumann",,50.10486,1.85866,,,,,,,,,,,,,,,,,,
6612,Velaines,55500,"94 Rue De Ligny",,48.695385,5.314052,,,,,,,,,,,,,,,,,,
6607,Dunkerque,59140,"100 Rue De La Bélandrière",,51.024,2.3627427,,,,,,,,,,,,,,,,,,
6602,Sainte-Ruffine,57130,"380 Bis Route De Paris",,49.110313,6.098005,,,,,,,,,,,,,,,,,,
6592,Coudekerque-Branche,59210,"30 Rue Célestin Malo",,51.029613,2.4046724,,,,,,,,,,,,,,,,,,
6587,Cappelle-La-Grande,59180,"33 Rue Du Langhe Gracht",,50.994213,2.3663094,,,,,,,,,,,,,,,,,,
6582,Téteghem,59229,"83 Route Du Chapeau Rouge",,51.02218,2.43526,,,,,,,,,,,,,,,,,,
6577,Saint-Dizier,52100,"2 Route De Bar Le Duc",,48.64874,4.95664,,,,,,,,,,,,,,,,,,
6572,Talange,57525,"Zone Commerciale Du Triangle, 17",,49.242847,6.1711044,,,,,,,,,,,,,,,,,,
6567,Fèves,57535,"1 Rue Des Alouettes",,49.212776,6.1210375,,,,,,,,,,,,,,,,,,
6562,Hagondange,57300,"1 Rue De La Voie Romaine",,49.24265,6.1455917,,,,,,,,,,,,,,,,,,
6557,Mondelange,57300,"2A Avenue De L'Europe",,49.260162,6.157467,,,,,,,,,,,,,,,,,,
6552,Guénange,57310,"37 Route De Thionville",,49.2986,6.190061,,,,,,,,,,,,,,,,,,
6547,"St Martin Lez Tatinghem",62500,"Zi Rue De Calais",,50.760586,2.2263896,,,,,,,,,,,,,,,,,,
6542,Socx,59380,"2 Faubourg De Cassel",,50.95868,2.4331355,,,,,,,,,,,,,,,,,,
6537,Marconne,62140,"68 Rue Du Champ Ste Marie",,50.36729,2.02966,,,,,,,,,,,,,,,,,,
6532,"Saint-Omer (Pas De Calais)",62500,"35 Boulevard De Strasbourg",,50.75551,2.2577546,,,,,,,,,,,,,,,,,,
6530,Longuenesse,62219,"54 Rue De Lumbres",,50.73834,2.2495036,,,,,,,,,,,,,,,,,,
6527,Clouange,57185,"Rue Clémenceau",,49.25781,6.095146,,,,,,,,,,,,,,,,,,
6517,Chauvoncourt,55300,"2 Rue Du Docteur Vuillaume",,48.896523,5.5367618,,,,,,,,,,,,,,,,,,
6502,Thionville,57100,"5 Rue De L'Ancienne Gare",,49.349613,6.159559,,,,,,,,,,,,,,,,,,
6498,Sainte-Marie-Aux-Chênes,57255,"Zone Commerciale Du Sauceu",,49.198277,5.995059,,,,,,,,,,,,,,,,,,
6497,Moyeuvre-Grande,57250,"1 Rue De L'Avenir",,49.251003,6.0559287,,,,,,,,,,,,,,,,,,
6492,Thionville,57100,"43 Chemin De La Malgrange",,49.366703,6.1668377,,,,,,,,,,,,,,,,,,
6487,Fameck,57290,"1 Rue Des Grands Fossés",,49.314682,6.108917,,,,,,,,,,,,,,,,,,
6477,Wormhout,59470,"1313-1313Bis Rue De Bergues",,50.89533,2.4598835,,,,,,,,,,,,,,,,,,
6462,Briey,54150,"14 Rue Gambetta",,49.242527,5.9430017,,,,,,,,,,,,,,,,,,
6457,Revigny,55800,"Rue Des Chanoines",,48.828175,4.98241,,,,,,,,,,,,,,,,,,
6452,Aire-Sur-La-Lys,62120,"Avenue De L'Europe",,50.63723,2.41348,,,,,,,,,,,,,,,,,,
6442,Frévent,62270,"1 Bis Rue Georges Clémenceau",,50.273926,2.2907913,,,,,,,,,,,,,,,,,,
6437,"Beuvillers (Meurthe-Et-Moselle)",54560,"2 Rue De L'Ancienne Scierie",,49.38753,5.918901,,,,,,,,,,,,,,,,,,
6432,Saint-Pol-Sur-Ternoise,62130,"7 Rue René Cassin",,50.38695,2.34752,,,,,,,,,,,,,,,,,,
6427,Lillers,62190,"Rue Adolphe Dekeyser",,50.568516,2.4580996,,,,,,,,,,,,,,,,,,
6422,Russange,57390,"33 Avenue Napoléon 1Er",,49.48012,5.9609184,,,,,,,,,,,,,,,,,,
6412,Étain,55400,"Rue Des Casernes",,49.208385,5.6416593,,,,,,,,,,,,,,,,,,
6407,Doullens,80600,"Avenue Du Maréchal Foch",,50.16089,2.34099,,,,,,,,,,,,,,,,,,
6382,Haudainville,55100,"Lieu-Dit La Côte",,49.144432,5.4088926,,,,,,,,,,,,,,,,,,
6377,"Merville (Nord)",59660,"26 Rue D'Aire",,50.64149,2.62385,,,,,,,,,,,,,,,,,,
6372,Divion,62460,"137 Rue Des Frères Caron",,50.47205,2.5220635,,,,,,,,,,,,,,,,,,
6367,"Bailleul (Nord)",59270,"400 Avenue Des Nations Unies",,50.72836,2.7355173,,,,,,,,,,,,,,,,,,
6352,Houdain,62150,"149 Rue Du Docteur Bonduelle",,50.453945,2.545108,,,,,,,,,,,,,,,,,,
6337,Béthune,62400,"456 Rue Fleming",,50.54133,2.648449,,,,,,,,,,,,,,,,,,
6332,"La Gorgue",59253,"139 Rue De La Coquenesse 958",,50.634785,2.7350416,,,,,,,,,,,,,,,,,,
6317,Beuvry,62660,"9 Ter Rue Jules Guesde",,50.52229,2.668537,,,,,,,,,,,,,,,,,,
6312,"Cosnes Et Romain",54400,"47 Route Des Maragolles",,49.517036,5.7422566,,,,,,,,,,,,,,,,,,
6307,Longuyon,54260,"2 Route D'Arrancy",,49.430992,5.6150846,,,,,,,,,,,,,,,,,,
6302,Armentières,59280,"61 Boulevard Faidherbe",,50.682407,2.8714,,,,,,,,,,,,,,,,,,
6297,Armentières,59280,"17 Rue Albert De Mun",,50.690117,2.8888245,,,,,,,,,,,,,,,,,,
6267,Haisnes,62138,"Parc Commercial Porte Des Flandres",,50.519287,2.7913249,,,,,,,,,,,,,,,,,,
6265,Liévin,62800,"24 Bis Rue Dutemple",,50.431053,2.7540667,,,,,,,,,,,,,,,,,,
6262,Pérenchies,59840,"Avenue Du Bois",,50.66282,2.9739966,,,,,,,,,,,,,,,,,,
6257,Liévin,62800,"Rue Du Fond À Marle",,50.42317,2.77955,,,,,,,,,,,,,,,,,,
6252,Douvrin,62138,"2 Bis Rue Du Général De Gaulle",,50.509624,2.8478756,,,,,,,,,,,,,,,,,,
6247,Dainville,62000,"66 Avenue Jean Mermoz",,50.28402,2.73781,,,,,,,,,,,,,,,,,,
6237,Haubourdin,59320,"81 Rue Albert Vanderhagen",,50.6109,2.9727807,,,,,,,,,,,,,,,,,,
6232,Wavrin,59136,"11B Rue Du Général Koenig",,50.565422,2.9295492,,,,,,,,,,,,,,,,,,
6227,Vendin-Le-Vieil,62880,"1 Place Saint Auguste",,50.450226,2.841203,,,,,,,,,,,,,,,,,,
6222,Wambrechies,59118,"92 Bis Rue De Marquette",,50.684605,3.0596843,,,,,,,,,,,,,,,,,,
6213,Tourcoing,59200,"208 Rue Du Pont Rompu",,50.740196,3.1468892,,,,,,,,,,,,,,,,,,
6212,Avion,62210,"14 Rue Du 4 Septembre",,50.41234,2.8280256,,,,,,,,,,,,,,,,,,
6202,Arras,62000,"43 Rue Ernest Renan",,50.277378,2.778521,,,,,,,,,,,,,,,,,,
6197,Marquette-Lez-Lille,59520,"190 Rue Lalau",,50.670685,3.0693417,,,,,,,,,,,,,,,,,,
6192,Meurchin,62410,"10 Rue Mirabeau",,50.492214,2.8980408,,,,,,,,,,,,,,,,,,
6177,Saint-Laurent-Blangy,62223,"45 Rue Du Général De Gaulle",,50.295864,2.7970881,,,,,,,,,,,,,,,,,,
6172,Annœullin,59112,"71 Rue Roger Salengro",,50.530987,2.939547,,,,,,,,,,,,,,,,,,
6167,Tourcoing,59200,"150 Rue Du Levant",,50.720867,3.1816924,,,,,,,,,,,,,,,,,,
6162,Harnes,62440,"36 Rue Henri Barbusse",,50.44821,2.90384,,,,,,,,,,,,,,,,,,
6157,Lille,59000,"106/116 Boulevard Victor Hugo",,50.622242,3.0606363,,,,,,,,,,,,,,,,,,
6152,"Croix (Nord)",59170,"55 Rue Favreuil",,50.692333,3.1502485,,,,,,,,,,,,,,,,,,
6142,Wasquehal,59290,"4 Rue Jean Jaurès",,50.678505,3.1364315,,,,,,,,,,,,,,,,,,
6137,Acheville,62680,"99 Rue Camille Desmoulins",,50.398006,2.8850026,,,,,,,,,,,,,,,,,,
6132,Wattignies,59139,"25 Rue Clémenceau",,50.5988,3.0540533,,,,,,,,,,,,,,,,,,
6122,Mons-En-Barœul,59370,"6 Rue Jacquard",,50.635937,3.1060774,,,,,,,,,,,,,,,,,,
6112,Ronchin,59155,"13 Rue Lavoisier",,50.6029,3.07524,,,,,,,,,,,,,,,,,,
6102,Roubaix,59100,"43/45 Rue Jules Guesde",,50.68234,3.1798122,,,,,,,,,,,,,,,,,,
6092,Wattrelos,59150,"53 Boulevard Pierre Mendès France",,50.695316,3.2112074,,,,,,,,,,,,,,,,,,
6087,Mons-En-Barœul,59260,"383 Rue Roger Salengro",,50.62508,3.11972,,,,,,,,,,,,,,,,,,
6082,Roubaix,59100,"113 Rue Horace Vernet",,50.67257,3.186009,,,,,,,,,,,,,,,,,,
6067,Hem,59100,"346 Rue Jules Guesde",,50.6611,3.2000723,,,,,,,,,,,,,,,,,,
6062,Bapaume,62450,"72 Rue De La République",,50.10585,2.8622,,,,,,,,,,,,,,,,,,
6057,Villeneuve-D'Ascq,59650,"73 Rue Marcel Bouderiez",,50.619347,3.1500857,,,,,,,,,,,,,,,,,,
6052,Lesquin,59810,"8 Rue Anatole France",,50.589104,3.1161628,,,,,,,,,,,,,,,,,,
6047,Hénin-Beaumont,62110,"1004 Boulevard Schweitzer",,50.416866,2.9734135,,,,,,,,,,,,,,,,,,
6042,Ostricourt,59162,"Rue Jean Baptiste Lebas",,50.464672,3.0295076,,,,,,,,,,,,,,,,,,
6037,Willems,59780,"5 Rue Jean-Baptiste Lebas",,50.63015,3.2363298,,,,,,,,,,,,,,,,,,
6032,Pont-À-Marcq,59710,"21 Avenue Du Général De Gaulle",,50.51797,3.1205404,,,,,,,,,,,,,,,,,,
6027,Vitry-En-Artois,62490,"30 Route Nationale",,50.33235,2.97711,,,,,,,,,,,,,,,,,,
6022,Stenay,55700,"1 Rue Des Sorbiers",,49.48407,5.1996,,,,,,,,,,,,,,,,,,
6012,Waziers,59119,"270 Rue Paul Langevin",,50.388065,3.1026957,,,,,,,,,,,,,,,,,,
6007,Lambres-Lez-Douai,59552,"10 Rue Du Maréchal Joffre",,50.344135,3.0911252,,,,,,,,,,,,,,,,,,
6003,Dechy,59450,"905 Rue Maurice Richard",,50.35492,3.1236167,,,,,,,,,,,,,,,,,,
6002,Orchies,59310,"4 Zone D'Activités L'Europe",,50.472683,3.233743,,,,,,,,,,,,,,,,,,
5997,Masny,59176,"66 Bis Avenue Du 8 Mai 1945",,50.33854,3.19178,,,,,,,,,,,,,,,,,,
5992,Vouziers,08400,"2 Rue Albert Caquot",,49.39477,4.68136,,,,,,,,,,,,,,,,,,
5987,Carignan,08110,"37 De Gaulle",,49.634243,5.1600504,,,,,,,,,,,,,,,,,,
5982,Aniche,59580,"55 Rue Du Général Delestraint",,50.336044,3.250123,,,,,,,,,,,,,,,,,,
5957,Bouchain,59111,"435 Avenue Du Président Kennedy",,50.28784,3.30984,,,,,,,,,,,,,,,,,,
5947,Lourches,59156,"32 Rue Jean Jaures",,50.3122,3.345971,,,,,,,,,,,,,,,,,,
5937,Raismes,59590,"57 Rue Jean Jaures",,50.391502,3.4773698,,,,,,,,,,,,,,,,,,
5932,Vieux-Condé,59690,"1 Rue Jean Jaurés",,50.45501,3.567955,,,,,,,,,,,,,,,,,,
5922,Sedan,08200,"Rue Des Forges",,49.698544,4.920962,,,,,,,,,,,,,,,,,,
5907,Anzin,59410,"77 Rue Jean Jaurès",,50.376663,3.518742,,,,,,,,,,,,,,,,,,
5902,Caudry,59540,"153 Rue De Bruxelles",,50.133526,3.4112499,,,,,,,,,,,,,,,,,,
5892,Saint-Saulve,59880,"208 I Rue Jean Jaurès",,50.374187,3.5624986,,,,,,,,,,,,,,,,,,
5887,Valenciennes,59770,"Avenue Henry Barbusse",,50.35071,3.5404885,,,,,,,,,,,,,,,,,,
5882,Onnaing,59264,"347 Rue Jean Jaurès",,50.39034,3.61198,,,,,,,,,,,,,,,,,,
5867,"Le Cateau-Cambrésis",59360,"43 Avenue Du Maréchal Leclerc Hauteclocque",,50.101826,3.558489,,,,,,,,,,,,,,,,,,
5862,"Le Quesnoy",59530,"135 Route De Valenciennes",,50.262154,3.6327841,,,,,,,,,,,,,,,,,,
5847,Joigny-Sur-Meuse,08120,"42 Rue Victor Hugo",,49.844265,4.7709894,,,,,,,,,,,,,,,,,,
5842,Prix-Lès-Mézières,08000,"1 Boulevard Lucien Pierquin",,49.776524,4.69823,,,,,,,,,,,,,,,,,,
5837,Bavay,59570,"28 Route De Maubeuge",,50.29633,3.81037,,,,,,,,,,,,,,,,,,
5807,Revin,08500,"27 Avenue Jean Baptiste Clément",,49.93801,4.6411023,,,,,,,,,,,,,,,,,,
5787,Fourmies,59610,"8 Roger Couderc",,50.017696,4.0372086,,,,,,,,,,,,,,,,,,
5777,Évreux,27000,"81 Route D'Orléans",,49.00188,1.15386,,,,,,,,,,,,,,,,,,
5765,Amiens,80000,"1 Rue Raymond Gourdain",,49.87652,2.3313198,,,,,,,,,,,,,,,,,,
5758,Aubevoye,27940,"1 Rue Jean Moulin",,49.17319,1.3522136,,,,,,,,,,,,,,,,,,
5750,Longueau,80330,"4 Avenue De L' Arc",,49.868767,2.37201,,,,,,,,,,,,,,,,,,
5742,"Péronne (Somme)",80200,"57/61 Route De Paris",,49.912014,2.934059,,,,,,,,,,,,,,,,,,
5740,Suippes,51600,"1 Route De Reims",,49.129635,4.524276,,,,,,,,,,,,,,,,,,
5728,Ferrières-En-Bray,76220,"Boulevard De Verdun",,49.480213,1.73418,,,,,,,,,,,,,,,,,,
5727,Saint-Quentin,02100,"4 Boulevard Victor Hugo",,49.841785,3.2871504,,,,,,,,,,,,,,,,,,
5722,"Saint-Marcel (Eure)",27200,"8 Route De Rouen",,49.10311,1.467284,,,,,,,,,,,,,,,,,,
5717,Morisel,80110,"Lieu Dit La Fosse Landon",,49.768154,2.4690082,,,,,,,,,,,,,,,,,,
5712,Saint-Memmie,51470,"117 Avenue Jacques Simon",,48.95358,4.38525,,,,,,,,,,,,,,,,,,
5700,Breteuil,60120,"96 Route D'Amiens",,49.638905,2.2805068,,,,,,,,,,,,,,,,,,
5693,Gisors,27140,"Rue Du Faubourg De Neaufles",,49.276474,1.7638793,,,,,,,,,,,,,,,,,,
5692,"La Rivière-De-Corps",10300,"106 Avenue Général Leclerc",,48.29188,4.0323367,,,,,,,,,,,,,,,,,,
5683,Barberey-Saint-Sulpice,10600,"Rue Des Valères",,48.335735,4.025613,,,,,,,,,,,,,,,,,,
5678,Fère,02800,"Boulevard Saint Firmin",,49.661972,3.351561,,,,,,,,,,,,,,,,,,
5673,Roye,80700,"Route De Paris",,49.688713,2.787745,,,,,,,,,,,,,,,,,,
5667,Condren,02700,"Route De Chauny",,49.650314,3.2759044,,,,,,,,,,,,,,,,,,
5662,Reims,51100,"1 Rue Du Commerce",,49.26847,4.03794,,,,,,,,,,,,,,,,,,
5652,Saint-Brice-Courcelles,51370,"2 Rue De La Croix Maurencienne",,49.278385,4.0022383,,,,,,,,,,,,,,,,,,
5642,"Cormontreuil (Marne)",51350,"23 Rue Des Laps",,49.21545,4.043291,,,,,,,,,,,,,,,,,,
5635,Chauny,02300,"122 Rue André Ternynck",,49.622845,3.2065327,,,,,,,,,,,,,,,,,,
5632,Reims,51100,"9004 Avenue Du Maréchal Juin",,49.221794,4.01675,,,,,,,,,,,,,,,,,,
5617,Saint-Just-En-Chaussée,60130,"39 Rue De Tailbouis",,49.511703,2.4287722,,,,,,,,,,,,,,,,,,
5612,Noyon,60400,"Zac Du Mont Renaud",,49.573303,2.9785147,,,,,,,,,,,,,,,,,,
5607,Hardricourt,78250,"25 Avenue Des Aulnes",,49.011566,1.901603,,,,,,,,,,,,,,,,,,
5602,"Vernouillet (Yvelines)",78540,"78 Allée Des Resedas",,48.975876,1.9859099,,,,,,,,,,,,,,,,,,
5598,Thourotte,60150,"2-3 Rue Du Marechal Juin",,49.481815,2.8721812,,,,,,,,,,,,,,,,,,
5597,Vauréal,95490,"60 Mail Georges Brassens",,49.022526,2.0290961,,,,,,,,,,,,,,,,,,
5592,"Bury (Oise)",60250,"1335 Rue Du Grand Pré",,49.313995,2.3342037,,,,,,,,,,,,,,,,,,
5587,Pontoise,95300,"70 Rue De Gisors",,49.054546,2.0941885,,,,,,,,,,,,,,,,,,
5583,Carrières-Sous-Poissy,78955,"598 Route D'Andrésy",,48.95552,2.0427403,,,,,,,,,,,,,,,,,,
5562,Éragny,78700,"243 Rue De L'Ambassadeur",,49.012604,2.0909474,,,,,,,,,,,,,,,,,,
5557,Rantigny,60290,"8 Rue Parmentier",,49.32448,2.4478211,,,,,,,,,,,,,,,,,,
5555,Soissons,02200,"1 Square Du Docteur Salmon",,49.369156,3.324497,,,,,,,,,,,,,,,,,,
5552,Venette,60880,"25 Avenue De L'Europe",,49.40655,2.780503,,,,,,,,,,,,,,,,,,
5550,Compiègne,60200,"2 Rue Gaspard Monge",,49.395714,2.7882793,,,,,,,,,,,,,,,,,,
5547,Persan,60230,"238 Bis Avenue Jacques Vogt",,49.159042,2.2610035,,,,,,,,,,,,,,,,,,
5542,Montesson,78360,"15 Avenue Gabriel Péri",,48.90616,2.1151,,,,,,,,,,,,,,,,,,
5538,Villers-Saint-Paul,60870,"2001 Rue Du Gal De Gaulle",,49.284954,2.4911287,,,,,,,,,,,,,,,,,,
5525,Taverny,95150,"9 Avenue Théodore Monod",,49.027996,2.2053156,,,,,,,,,,,,,,,,,,
5522,Pont-Sainte-Maxence,60700,"1227 Rue Pasteur",,49.30673,2.5981073,,,,,,,,,,,,,,,,,,
5517,Saint-Leu-D'Esserent,60340,"6/12 Route De Creil",,49.223076,2.4290435,,,,,,,,,,,,,,,,,,
5513,Saponay,02130,"Zac De Saponay",,49.207813,3.5008252,,,,,,,,,,,,,,,,,,
5502,Cormeilles-En-Parisis,95240,"Boulevard Des Bois Rochefort",,48.955627,2.2045333,,,,,,,,,,,,,,,,,,
5498,Nanterre,92000,"73 Rue Sadi Carnot",,48.887264,2.20841,,,,,,,,,,,,,,,,,,
5493,Argenteuil,95100,"Boulevard Du Général Leclerc",,48.941208,2.2296836,,,,,,,,,,,,,,,,,,
5487,Eaubonne,95600,"328 Rue Saint Prix",,48.997772,2.2691622,,,,,,,,,,,,,,,,,,
5483,Sannois,95110,"41 Boulevard Gabriel Péri",,48.96535,2.2623885,,,,,,,,,,,,,,,,,,
5482,Lamorlaye,60260,"57 Rue De La Seigneurie",,49.149086,2.4327993,,,,,,,,,,,,,,,,,,
5477,"Saint-Gratien (Val D'Oise)",95210,"10 Boulevard Pasteur",,48.966473,2.2820888,,,,,,,,,,,,,,,,,,
5472,Épinay-Sur-Seine,93800,"70 Route D'Argenteuil",,48.95859,2.2886252,,,,,,,,,,,,,,,,,,
5467,Soisy-Sous-Montmorency,95880,"211 Avenue De La Division Leclerc",,48.978676,2.304713,,,,,,,,,,,,,,,,,,
5463,Levallois-Perret,92300,"55 Rue Raspail",,48.898438,2.291103,,,,,,,,,,,,,,,,,,
5462,Asnières-Sur-Seine,92600,"44-56 Rue Des Grésillons",,48.913994,2.3000507,,,,,,,,,,,,,,,,,,
5457,Clichy,92110,"122 Avenue Du Général Leclerc",,48.909386,2.307204,,,,,,,,,,,,,,,,,,
5452,Clichy,92110,"101-103 Boulevard Victor Hugo",,48.9014,2.3163784,,,,,,,,,,,,,,,,,,
5443,Villers-Cotterêts,02600,"9 Avenue De La Ferté Milon",,49.24978,3.0952976,,,,,,,,,,,,,,,,,,
5438,"Saint-Ouen (Seine Saint Denis)",93400,"89-103 Avenue Gabriel Péri",,48.90392,2.3315158,,,,,,,,,,,,,,,,,,
5428,Sarcelles,95200,"Zac Du Cœur De Ville",,48.987038,2.377126,,,,,,,,,,,,,,,,,,
5425,Paris,75018,"47-55 Rue Belliard",,48.8976,2.345884,,,,,,,,,,,,,,,,,,
5420,Sarcelles,95400,"6 Rue Des Erables",,49.00056,2.3904538,,,,,,,,,,,,,,,,,,
5415,Paris,75010,"8 Boulevard De Strasbourg",,48.87012,2.3550258,,,,,,,,,,,,,,,,,,
5412,"Montmirail (Marne)",51210,"6 Rue De La Guinotterie",,48.871284,3.5568833,,,,,,,,,,,,,,,,,,
5407,Paris,75019,"247 Rue De Crimée",,48.89433,2.3722754,,,,,,,,,,,,,,,,,,
5402,Paris,75010,"53-55 Boulevard De La Villette",,48.8756,2.372241,,,,,,,,,,,,,,,,,,
5392,Garges-Lès-Gonesse,95140,"3 Rue Marcel Cerdan",,48.96178,2.4034276,,,,,,,,,,,,,,,,,,
5387,Fosses,95470,"4 Rue De La Ferme Saint Ladre",,49.0998,2.5269,,,,,,,,,,,,,,,,,,
5385,Paris,75011,"83 Rue Saint Maur",,48.863934,2.378293,,,,,,,,,,,,,,,,,,
5382,Arnouville,95400,"34 Avenue Paul Vaillant Couturier",,48.983494,2.4204078,,,,,,,,,,,,,,,,,,
5380,Paris,75011,"130 Rue Du Chemin Vert",,48.862083,2.384919,,,,,,,,,,,,,,,,,,
5377,Paris,75012,"108-112 Avenue Daumesnil",,48.842636,2.3843412,,,,,,,,,,,,,,,,,,
5372,Paris,75019,"72 Rue Compans",,48.87913,2.3928103,,,,,,,,,,,,,,,,,,
5367,"Goussainville (Val D'Oise)",95190,"Avenue De La Gare",,49.022976,2.4646585,,,,,,,,,,,,,,,,,,
5362,Bobigny,93000,"2 Rue Marat",,48.917606,2.4145744,,,,,,,,,,,,,,,,,,
5358,"Le Bourget",93350,"20 Avenue Jean Jaurès",,48.93326,2.4229178,,,,,,,,,,,,,,,,,,
5357,Provins,77160,"13 Avenue De La Voulzie",,48.54934,3.2955391,,,,,,,,,,,,,,,,,,
5352,Paris,75020,"73 Rue Des Pyrénées",,48.853218,2.405662,,,,,,,,,,,,,,,,,,
5350,Bagnolet,93170,"193 Avenue Gambeta",,48.87552,2.42189,,,,,,,,,,,,,,,,,,
5348,Drancy,93700,"Route De Stalingrad",,48.914146,2.434213,,,,,,,,,,,,,,,,,,
5347,Château-Thierry,02400,"37 Rue De La Prairie",,49.03796,3.3956954,,,,,,,,,,,,,,,,,,
5338,Aulnay-Sous-Bois,93300,"Boulevard Marc Chagall",,48.951115,2.4882653,,,,,,,,,,,,,,,,,,
5335,Noisy-Le-Sec,93100,"284 Rue De Rosny",,48.870026,2.4677947,,,,,,,,,,,,,,,,,,
5332,Bondy,93140,"20/26 Avenue Henri Varagnat",,48.913628,2.483623,,,,,,,,,,,,,,,,,,
5327,Rosny-Sous-Bois,93110,"95/99 Boulevard Alsace Lorraine",,48.88521,2.4853616,,,,,,,,,,,,,,,,,,
5322,Bondy,93140,"77 Avenue Geneviève Anthonioz De Gaulle",,48.894844,2.4879243,,,,,,,,,,,,,,,,,,
5320,Fontenay-Sous-Bois,94120,"4 Rue Roger Salengro",,48.848553,2.4886825,,,,,,,,,,,,,,,,,,
5317,"Villepinte (Seine Saint Denis)",93420,"4-6 Route De Tremblay",,48.966408,2.5424583,,,,,,,,,,,,,,,,,,
5312,Livry-Gargan,93190,"20 À 28 Boulevard Jean Moulin",,48.911602,2.5140426,,,,,,,,,,,,,,,,,,
5307,Sevran,93270,"41 Rue Becquerel",,48.94302,2.53228,,,,,,,,,,,,,,,,,,
5302,Lagny-Le-Sec,60330,"Rue De La Briquerie",,49.096123,2.7395883,,,,,,,,,,,,,,,,,,
5297,Tremblay-En-France,93420,"7 Allée Louis Bréguet",,48.957172,2.5616484,,,,,,,,,,,,,,,,,,
5293,Neuilly-Sur-Marne,93300,"17/25 Avenue Robert Schumann",,48.872925,2.5311944,,,,,,,,,,,,,,,,,,
5288,Livry-Gargan,93190,"45/53 Boulevard De L'Europe",,48.92639,2.54857,,,,,,,,,,,,,,,,,,
5282,Chennevières-Sur-Marne,94430,"1 Route De La Libération",,48.8059,2.5347962,,,,,,,,,,,,,,,,,,
5277,Nangis,77370,"5 Avenue Du Général De Gaulle",,48.561764,3.0152328,,,,,,,,,,,,,,,,,,
5272,Villiers-Sur-Marne,94350,"2 Chemin Des Prunais",,48.83425,2.5481958,,,,,,,,,,,,,,,,,,
5268,Chennevières-Sur-Marne,94430,"1 Avenue De Pince Vent",,48.79609,2.55976,,,,,,,,,,,,,,,,,,
5265,Montfermeil,93370,"1 Rue Des Perriers",,48.90073,2.569029,,,,,,,,,,,,,,,,,,
5260,"La Queue-En-Brie",77340,"1 Chemin Des Quatres Chenes",,48.778465,2.5897765,,,,,,,,,,,,,,,,,,
5257,Villeparisis,77270,"105 Route De Villevaudé",,48.9361,2.6251361,,,,,,,,,,,,,,,,,,
5253,"La Ferté-Gaucher",77320,"Za Le Petit Taillis Rte De Provins",,48.77412,3.2917438,,,,,,,,,,,,,,,,,,
5252,Champs-Sur-Marne,77420,"3 Cours Des Deux Parcs",,48.85192,2.612973,,,,,,,,,,,,,,,,,,
5242,Lognes,77185,"1 Avenue De La Soubriarde",,48.83342,2.6396928,,,,,,,,,,,,,,,,,,
5237,Ozoir-La-Ferrière,77330,"100 Avenue Du Général Leclerc",,48.775616,2.677498,,,,,,,,,,,,,,,,,,
5235,Saint-Thibault-Des-Vignes,77400,"6 Avenue De La Courtillère",,48.868534,2.676456,,,,,,,,,,,,,,,,,,
5222,Chanteloup-En-Brie,77600,"231 Zac Le Clos Du Chêne St Fiacre",,48.855824,2.752604,,,,,,,,,,,,,,,,,,
5212,Meaux,77100,"69 Avenue De La Victoire",,48.957706,2.9141986,,,,,,,,,,,,,,,,,,
5202,Villenoy,77100,"186 Rue Jean Serva",,48.939102,2.8783846,,,,,,,,,,,,,,,,,,
5197,Coulommiers,77120,"2 Rue De L'Orgeval",,48.80274,3.08709,,,,,,,,,,,,,,,,,,
5188,Mézières-Sur-Seine,78402,"Zac Du Pelican",,48.962032,1.8027816,,,,,,,,,,,,,,,,,,
5187,Maisons-Alfort,94700,"34 Avenue Georges Clémenceau",,48.80776,2.443589,,,,,,,,,,,,,,,,,,
5182,Créteil,94000,"5-9 Avenue Du Maréchal De Lattre De Tassigny",,48.79542,2.4584358,,,,,,,,,,,,,,,,,,
5177,Ivry-Sur-Seine,94200,"13 Avenue Pierre Semard",,48.81996,2.381446,,,,,,,,,,,,,,,,,,
5172,Paris,75013,"66 Avenue D'Ivry",,48.824646,2.363834,,,,,,,,,,,,,,,,,,
5167,Saint-Germain-En-Laye,78100,"6 Rue Albert Priolet",,48.900043,2.0742931,,,,,,,,,,,,,,,,,,
5162,Chambourcy,78240,"Route De Mantes",,48.904705,2.0517707,,,,,,,,,,,,,,,,,,
5158,Bonneuil-Sur-Marne,94370,"3 Rue Des Amériques",,48.774113,2.4984434,,,,,,,,,,,,,,,,,,
5157,Suresnes,92150,"49 Avenue Jean Jaurès",,48.865826,2.2022429,,,,,,,,,,,,,,,,,,
5155,Paris,75015,"24-28 Rue H. Labrouste",,48.83545,2.3086247,,,,,,,,,,,,,,,,,,
5150,Paris,75015,"170 Rue St Charles",,48.84152,2.28074,,,,,,,,,,,,,,,,,,
5147,Paris,75014,"89-94 Boulevard Jourdan",,48.82301,2.327707,,,,,,,,,,,,,,,,,,
5143,Créteil,94000,"5 Rue Emmanuel Chabrier",,48.776997,2.463246,,,,,,,,,,,,,,,,,,
5142,Paris,75016,"205-207 Avenue De Versailles",,48.838432,2.2598448,,,,,,,,,,,,,,,,,,
5137,Saint-Cloud,92210,"9 Rue Dailly",,48.84265,2.2208366,,,,,,,,,,,,,,,,,,
5132,Montrouge,92120,"74 Avenue Marx Dormoy",,48.810192,2.3184938,,,,,,,,,,,,,,,,,,
5127,Choisy-Le-Roi,94600,"130 Rue D'Alfortville",,48.77612,2.4161842,,,,,,,,,,,,,,,,,,
5122,Vitry-Sur-Seine,94400,"103 Avenue Rouget De Lisle",,48.779453,2.394391,,,,,,,,,,,,,,,,,,
5118,Clamart,92140,"1 Avenue De La Paix",,48.814823,2.2772756,,,,,,,,,,,,,,,,,,
5108,"Châtillon (Hauts De Seine)",92320,"54 Avenue De Paris",,48.805283,2.292652,,,,,,,,,,,,,,,,,,
5107,Vitry-Sur-Seine,94400,"132-162 Rue Julian Grimau",,48.778458,2.3765128,,,,,,,,,,,,,,,,,,
5102,Sèvres,92310,"38 Rue Grande Rue",,48.82545,2.2151103,,,,,,,,,,,,,,,,,,
5097,Villejuif,94800,"42 Rue De Chevilly",,48.781445,2.3550014,,,,,,,,,,,,,,,,,,
5088,Clamart,92140,"99-103 Rue De La Porte De Trivaux",,48.790234,2.259418,,,,,,,,,,,,,,,,,,
5087,Villeneuve-Le-Roi,94290,"1 Cours De Verdun",,48.733208,2.4069545,,,,,,,,,,,,,,,,,,
5077,Châtenay-Malabry,92290,"149 Rue Auguste Renoir",,48.76536,2.2644396,,,,,,,,,,,,,,,,,,
5070,"Saint-Clément (Yonne)",89100,"2 Rue De La Gaillarde",,48.215473,3.2777605,,,,,,,,,,,,,,,,,,
5068,Fontenay-Le-Fleury,78210,"Rue De L'Aérostation Maritime",,48.80906,2.055496,,,,,,,,,,,,,,,,,,
5067,Plaisir,78370,"6.8 Rue Paul Langevin",,48.83067,1.9554676,,,,,,,,,,,,,,,,,,
5062,Auxerre,89000,"5 Rue Denis Papin",,47.811954,3.584128,,,,,,,,,,,,,,,,,,
5053,Sens,89100,"170 Avenue Senigallia",,48.184452,3.2860386,,,,,,,,,,,,,,,,,,
5052,Draveil,91210,"50 Rue Waldeck Rousseau",,48.686634,2.4340093,,,,,,,,,,,,,,,,,,
5048,"Athis Mons",91200,"Av Foucher De Careil",,48.707794,2.3723361,,,,,,,,,,,,,,,,,,
5045,Palaiseau,91300,"Zac Le Moulin Rte D'Orléans",,48.73018,2.30211,,,,,,,,,,,,,,,,,,
5043,Monéteau,89470,"12 12 Avenue De L'Europe",,47.845963,3.5506864,,,,,,,,,,,,,,,,,,
5038,"Bois-D'Arcy (Yvelines)",78390,"Rue René Laennec",,48.799694,2.0182521,,,,,,,,,,,,,,,,,,
5037,"Morangis (Essonne)",91420,"79 Avenue Charles De Gaulle",,48.70621,2.345653,,,,,,,,,,,,,,,,,,
5032,Palaiseau,91300,"Zac Le Pileu Av Lavoisier",,48.73012,2.23942,,,,,,,,,,,,,,,,,,
5027,Chilly-Mazarin,91380,"57 Avenue Mazarin",,48.704895,2.3137074,,,,,,,,,,,,,,,,,,
5022,Montereau,77130,"1 Rue D'Enfer",,48.3994,2.95084,,,,,,,,,,,,,,,,,,
5017,Saint-Germain-Lès-Corbeil,91250,"2 Allée Louis Tillet",,48.6304,2.4932127,,,,,,,,,,,,,,,,,,
5012,Savigny-Le-Temple,77176,"9 Rue Cobalt",,48.585434,2.5921822,,,,,,,,,,,,,,,,,,
5007,Vert-Saint-Denis,77240,"80 Route Nationale 6",,48.564045,2.63221,,,,,,,,,,,,,,,,,,
5002,Saint-Pierre-Du-Perray,91280,"1 Rue Du Trou Grillon",,48.616287,2.5061588,,,,,,,,,,,,,,,,,,
4998,Longjumeau,91160,"118 Rue Maurice Chemin Départ",,48.69528,2.2870464,,,,,,,,,,,,,,,,,,
4997,Villebon-Sur-Yvette,91140,"Avenue De La Plesse",,48.702774,2.2530706,,,,,,,,,,,,,,,,,,
4992,Voisins-Le-Bretonneux,78960,"29 Rue Des Tilleuls",,48.755943,2.053219,,,,,,,,,,,,,,,,,,
4987,"Grigny (Essonne)",91130,"04-10 Avenue Paul Langevin",,48.65004,2.3992193,,,,,,,,,,,,,,,,,,
4985,Villeneuve-Sur-Yonne,89500,"1 Faubourg Saint Nicolas",,48.090725,3.294924,,,,,,,,,,,,,,,,,,
4982,Évry,91000,"4 Rue Descartes",,48.63499,2.4357266,,,,,,,,,,,,,,,,,,
4977,Morsang-Sur-Orge,91390,"8 Rue Jean Pierre Timbaud",,48.661797,2.3606243,,,,,,,,,,,,,,,,,,
4967,Dammarie-Les-Lys,77190,"536 Rue Des Frères Thibault",,48.5278,2.644824,,,,,,,,,,,,,,,,,,
4962,Coignières,78310,"21 Route Nationale 10",,48.75342,1.9361097,,,,,,,,,,,,,,,,,,
4957,Saintry-Sur-Seine,91100,"29 Boulevard John Kennedy",,48.591034,2.4780877,,,,,,,,,,,,,,,,,,
4952,Gif-Sur-Yvette,91190,"6 Route De L'Abbaye",,48.697197,2.1294098,,,,,,,,,,,,,,,,,,
4943,Samoreau,77210,"16 Rue De La Bernache",,48.42358,2.77235,,,,,,,,,,,,,,,,,,
4942,"Pringy (Seine Et Marne)",77310,"55 Rue De Melun",,48.523045,2.5611448,,,,,,,,,,,,,,,,,,
4940,Ecuelles,77250,"22 Avenue De Sens",,48.36983,2.8276463,,,,,,,,,,,,,,,,,,
4923,Toucy,89130,"Le Haut De La Barnaud",,47.72236,3.31113,,,,,,,,,,,,,,,,,,
4918,Saint-Pierre-Lès-Nemours,77140,"18 Rue Du Clos Saint Jean",,48.270493,2.676164,,,,,,,,,,,,,,,,,,
4917,Ferrières-En-Gâtinais,45210,"2 Rue Du Bois Planté",,48.091827,2.8034282,,,,,,,,,,,,,,,,,,
4912,Châlette-Sur-Loing,45120,"6 Avenue Du Général Leclerc",,48.01274,2.7401605,,,,,,,,,,,,,,,,,,
4907,"St Leger Des Vignes",58300,"St Thibault",,46.8357,3.4661863,,,,,,,,,,,,,,,,,,
4902,Nevers,58000,"6 Bis Rue Du Petit Mouesse",,46.98976,3.1715794,,,,,,,,,,,,,,,,,,
4897,Varennes-Vauzelles,58640,"43Bis Boulevard Camille Dagonneau",,47.010555,3.1506004,,,,,,,,,,,,,,,,,,
4887,Vichy,03200,"20 Rue Des Bartins",,46.135975,3.4247794,,,,,,,,,,,,,,,,,,
4882,Marzy,58180,"58 Rue De Fourchambault",,46.999844,3.106737,,,,,,,,,,,,,,,,,,
4880,Vichy,03700,"6 Rue Du Stade",,46.11489,3.4178343,,,,,,,,,,,,,,,,,,
4872,Avermes,03000,"Lieudit La Rigolée",,46.58256,3.3183384,,,,,,,,,,,,,,,,,,
4867,Charmeil,03110,"12 Route De Saint Pourçain",,46.156303,3.3916373,,,,,,,,,,,,,,,,,,
4857,Saint-Pourçain-Sur-Sioule,03500,"18 Route De Montmarault",,46.311333,3.2863925,,,,,,,,,,,,,,,,,,
4842,Riom,63200,"13 Avenue De Clermont",,45.881287,3.1150033,,,,,,,,,,,,,,,,,,
4840,Saint-Éloy-Les-Mines,63700,"4 Rue Du Puits Du Manoir",,46.16556,2.8327193,,,,,,,,,,,,,,,,,,
4837,Uhart-Cize,64220,"Route De Bayonne, ",,43.164856,-1.2425889,,,,,,,,,,,,,,,,,,
4832,Hendaye,64700,"80-82 Rue De Béhobie",,43.349007,-1.7711387,,,,,,,,,,,,,,,,,,
4827,Saint-Lys,31470,"Lieu-Dit Boutet",,43.512447,1.1995815,,,,,,,,,,,,,,,,,,
4825,Fonsorbes,31470,"2 Avenue Pierre Durand",,43.5487,1.2423688,,,,,,,,,,,,,,,,,,
4822,Colomiers,31770,"23 Chemin De La Salvetat",,43.603443,1.307666,,,,,,,,,,,,,,,,,,
4817,Urrugne,64122,"Route De Socoa",,43.38454,-1.6934134,,,,,,,,,,,,,,,,,,
4815,Tarbes,65310,"100 Avenue Aristide Briand",,43.21608,0.05581318,,,,,,,,,,,,,,,,,,
4812,Mirepeix,64800,"Rue Des Pyrénées",,43.18895,-0.2395847,,,,,,,,,,,,,,,,,,
4810,Léguevin,31490,"23 Route De Toulouse",,43.600212,1.2479677,,,,,,,,,,,,,,,,,,
4802,"Aureilhan - Midi Pyréné",65800,"21 Avenue Jean Jaurès",,43.23692,0.09203,,,,,,,,,,,,,,,,,,
4800,Mauléon,64130,"6239 Avenue De Belzunce",,43.224297,-0.88386846,,,,,,,,,,,,,,,,,,
4797,Tarbes,65000,"2 Chemin Cognac",,43.236557,0.045432713,,,,,,,,,,,,,,,,,,
4793,Saint-Jean-De-Luz,64500,"3 Avenue De Layatz",,43.39909,-1.639343,,,,,,,,,,,,,,,,,,
4792,Tarbes,65000,"111 Rue Alsace Lorraine",,43.25322,0.07167589,,,,,,,,,,,,,,,,,,
4790,"L'Isle-Jourdain (Gers)",32600,"32 Via Motta Di Livenza",,43.6052,1.1003189,,,,,,,,,,,,,,,,,,
4787,Bidart,64210,"853 Rue Harguin Etcheberry",,43.44702,-1.5741109,,,,,,,,,,,,,,,,,,
4783,Idron,64320,"41 Route De Tarbes",,43.299236,-0.30484563,,,,,,,,,,,,,,,,,,
4775,Lons,64140,"Rue Du 8 Mai 1945",,43.314587,-0.41784155,,,,,,,,,,,,,,,,,,
4772,Pau,64000,"230 Avenue Jean Mermoz",,43.321434,-0.3783509,,,,,,,,,,,,,,,,,,
4770,Anglet,64600,"2 Allée De La Clairière",,43.493927,-1.509463,,,,,,,,,,,,,,,,,,
4767,Bayonne,64100,"8 Avenue De Plantoun",,43.49448,-1.457531,,,,,,,,,,,,,,,,,,
4763,Mourenx,64150,"25 Avenue Charles Moureu",,43.38083,-0.61772025,,,,,,,,,,,,,,,,,,
4762,Mirande,32300,"1 Rue De Saint-Martin",,43.508965,0.4009115,,,,,,,,,,,,,,,,,,
4752,Orthez,64300,"107 Rue Léon Blum",,43.4798,-0.74878,,,,,,,,,,,,,,,,,,
4747,Véretz,37270,"Rue Clément Ader",,47.37339,0.81001,,,,,,,,,,,,,,,,,,
4742,Peyrehorade,40300,"254 Route De Bayonne",,43.548164,-1.1145558,,,,,,,,,,,,,,,,,,
4732,Saint-Geours-De-Maremne,40230,"3 Rue Des Artisans",,43.68414,-1.2425287,,,,,,,,,,,,,,,,,,
4727,Castelsarrasin,82100,"1 Impasse De L'Hippodrome",,44.05805,1.0997518,,,,,,,,,,,,,,,,,,
4723,Soustons,40140,"Rue Philip",,43.75044,-1.338039,,,,,,,,,,,,,,,,,,
4718,Fleurance,32500,"10 Avenue Du Corps Franc Pommies",,43.854427,0.6640412,,,,,,,,,,,,,,,,,,
4717,Hagetmau,40700,"Route D'Orthez",,43.640717,-0.61026865,,,,,,,,,,,,,,,,,,
4712,Moissac,82200,"52 Avenue Du Chasselas",,44.10882,1.1026807,,,,,,,,,,,,,,,,,,
4707,Dax,40100,"78 Route De Montfort",,43.70557,-1.0305866,,,,,,,,,,,,,,,,,,
4697,"Valence D'Agen",82400,"Avenue Du Quercy",,44.11539,0.88969576,,,,,,,,,,,,,,,,,,
4682,Mont-De-Marsan,40280,"1751 Avenue Du Président Kennedy",,43.87218,-0.49034154,,,,,,,,,,,,,,,,,,
4673,"Aureilhan - Aquitaine",40200,"51 Route Des Chasseurs",,44.212814,-1.2017125,,,,,,,,,,,,,,,,,,
4672,Saint-Pierre-Sur-Dives,14170,"Ruelle Des Prés",,49.02006,-0.03733,,,,,,,,,,,,,,,,,,
4668,Broglie,27270,"Rue Augustin Fresnel",,49.01362,0.537039,,,,,,,,,,,,,,,,,,
4665,"Étréchy (Cher)",91580,"1 Avenue Du Pont Royal",,48.484863,2.1927028,,,,,,,,,,,,,,,,,,
4663,Commentry,03600,"Rue De La Commune De Paris, ",,46.299374,2.7354858,,,,,,,,,,,,,,,,,,
4658,Muzillac,56190,"Rue De La Noë Du Parc",,47.560047,-2.499961,,,,,,,,,,,,,,,,,,
4650,Saint-Senier-Sous-Avranches,50300,"1 Avenue Du Rocher",,48.678356,-1.3391609,,,,,,,,,,,,,,,,,,
4645,Pontaubault,50300,"Parc De La Baie",,48.6536,-1.35051,,,,,,,,,,,,,,,,,,
4640,Étampes,91150,"48 Avenue Du 8 Mai 1945",,48.441532,2.1465933,,,,,,,,,,,,,,,,,,
4637,Cosne-Cours-Sur-Loire,58200,"5T Avenue Du 85Ème De Ligne",,47.399364,2.9232852,,,,,,,,,,,,,,,,,,
4632,Pontorson,50170,"6 Rue Des Colverts",,48.55915,-1.4922,,,,,,,,,,,,,,,,,,
4628,Falaise,14700,"Rue Michel D'Ornano",,48.90629,-0.2109977,,,,,,,,,,,,,,,,,,
4627,"Le Pouliguen",44510,"38 Avenue Llanwit Major",,47.279026,-2.435357,,,,,,,,,,,,,,,,,,
4622,Guérande,44350,"4 Rue De La Briquerie",,47.325413,-2.4112983,,,,,,,,,,,,,,,,,,
4617,Pleumeleuc,35137,"6 Rue De Galilée",,48.176224,-1.919963,,,,,,,,,,,,,,,,,,
4612,Dreux,28500,"4 Rue De La Briquetterie",,48.73227,1.3442819,,,,,,,,,,,,,,,,,,
4607,Briare,45250,"1 Rue Du Moulin À Vent",,47.656372,2.736278,,,,,,,,,,,,,,,,,,
4602,"La Baule-Escoublac",44500,"73 Place Des Salines",,47.291393,-2.3968017,,,,,,,,,,,,,,,,,,
4592,Montfort-Sur-Meu,35160,"3 Impasse De L'Ébranchoir",,48.138504,-1.9398258,,,,,,,,,,,,,,,,,,
4582,"La Gacilly",56200,"2 Rue De La Châtaigneraie",,47.774193,-2.139601,,,,,,,,,,,,,,,,,,
4573,"Angerville (Essonne)",91670,"15 Avenue De Paris",,48.315693,2.0042963,,,,,,,,,,,,,,,,,,
4572,Melesse,35520,"3 Rue Pont De L'Amiral",,48.212185,-1.6995205,,,,,,,,,,,,,,,,,,
4570,Verneuil-Sur-Avre,27130,"352 Rue Aristide Briand",,48.737247,0.93743354,,,,,,,,,,,,,,,,,,
4567,Saint-Hilaire-Du-Harcouët,50600,"Route De Paris",,48.565834,-1.067391,,,,,,,,,,,,,,,,,,
4562,Mordelles,35310,"6 Avenue Des Platanes",,48.080467,-1.8345191,,,,,,,,,,,,,,,,,,
4552,Vezin-Le-Coquet,35132,"56 Rue Du Manoir De Servigné",,48.10419,-1.7355174,,,,,,,,,,,,,,,,,,
4547,Argentan,61200,"2 Rue Pierre Bérégovoy",,48.74936,-0.013261517,,,,,,,,,,,,,,,,,,
4542,Redon,35600,"59 Rue De Cotard",,47.666702,-2.068166,,,,,,,,,,,,,,,,,,
4537,Rennes,35000,"36 Rue De La Donelière",,48.12993,-1.6846588,,,,,,,,,,,,,,,,,,
4532,Rennes,35000,"24-26 Avenue Du Mail François Mitterrand",,48.110043,-1.6885492,,,,,,,,,,,,,,,,,,
4530,Guichen,35580,"2 Rue Joliot Curie",,47.973026,-1.8134682,,,,,,,,,,,,,,,,,,
4528,Dun-Sur-Auron,18130,"40 Route De Bourges",,46.89446,2.5695658,,,,,,,,,,,,,,,,,,
4525,Bonnée,45460,"Route De Sully",,47.793003,2.3796184,,,,,,,,,,,,,,,,,,
4522,Cesson-Sévigné,35510,"1 Rue Nationale",,48.154865,-1.5931693,,,,,,,,,,,,,,,,,,
4518,Liffré,35340,"Rue Edmé Mariotte, 4",,48.223938,-1.4993632,,,,,,,,,,,,,,,,,,
4507,"Mainvilliers (Eure Et Loir)",28300,"43 Rue Du Château D'Eau",,48.44972,1.45129,,,,,,,,,,,,,,,,,,
4497,Fougères,35300,"43 Boulevard De Groslay",,48.345943,-1.1815115,,,,,,,,,,,,,,,,,,
4493,"La Ferté-Macé",61600,"Lieu-Dit Les Tesnières",,48.57593,-0.37268,,,,,,,,,,,,,,,,,,
4492,Saint-Germain-Du-Puy,18390,"Route De La Charité, 5",,47.096397,2.453857,,,,,,,,,,,,,,,,,,
4483,Bourges,18000,"11 Avenue De Robinson",,47.06647,2.3959253,,,,,,,,,,,,,,,,,,
4477,"Saint-Jean-Le-Blanc (Loiret)",45800,"155-157 Rue Du Faubourg De Bourgogne",,47.904423,1.9341774,,,,,,,,,,,,,,,,,,
4472,Orléans,45400,"11 Rue André Dessaux",,47.92307,1.9005011,,,,,,,,,,,,,,,,,,
4467,Vitré,35500,"2 Boulevard Papin",,48.107414,-1.2081757,,,,,,,,,,,,,,,,,,
4462,Orléans,45000,"28 Avenue De Saint Mesmin",,47.887783,1.8910649,,,,,,,,,,,,,,,,,,
4460,Ingré,45140,"190-198 Route Nationale",,47.930588,1.8382032,,,,,,,,,,,,,,,,,,
4457,Alençon,61000,"115 Rue Nicolas Appert",,48.446003,0.0989181,,,,,,,,,,,,,,,,,,
4452,Arçonnay,72610,"2 Route Du Mans",,48.39751,0.08963,,,,,,,,,,,,,,,,,,
4447,Nogent-Le-Rotrou,28400,"Avenue De Paris, 51",,48.326748,0.82701737,,,,,,,,,,,,,,,,,,
4442,Saint-Ay,45130,"11 Route Nationale 152",,47.860916,1.759855,,,,,,,,,,,,,,,,,,
4433,Châteaudun,28200,"9 Route De Blois",,48.063873,1.3326412,,,,,,,,,,,,,,,,,,
4427,Laval,53000,"24 Rue Saint Melaine",,48.071926,-0.7446031,,,,,,,,,,,,,,,,,,
4422,Évron,53600,"2 Route De Néau",,48.15824,-0.4124122,,,,,,,,,,,,,,,,,,
4412,Bonnétable,72110,"87 Avenue De La Porte De Sèvres",,48.17571,0.43294725,,,,,,,,,,,,,,,,,,
4397,"Changé (Sarthe)",72560,"23 Allée De La Coudre",,47.979748,0.27190992,,,,,,,,,,,,,,,,,,
4387,Mareil-En-Champagne,72540,"Rue Du Chene, 1",,47.987434,-0.16531472,,,,,,,,,,,,,,,,,,
4382,Boé,47550,"95 Avenue De Bigorre",,44.179752,0.6355729,,,,,,,,,,,,,,,,,,
4380,Vendôme,41100,"27 Rue De La Tuilerie",,47.807602,1.0705173,,,,,,,,,,,,,,,,,,
4372,Boé,47550,"49 Rue De Daubas",,44.190895,0.64984995,,,,,,,,,,,,,,,,,,
4368,"Le Mans",72100,"450 Avenue Felix Geneslay",,47.96434,0.20121834,,,,,,,,,,,,,,,,,,
4367,"Saint-Nazaire (Loire Atlantique)",44600,"109 Route De La Villès Mollé",,47.258614,-2.282965,,,,,,,,,,,,,,,,,,
4362,Agen,47000,"104 Avenue Docteur Jean Bru",,44.193188,0.6154495,,,,,,,,,,,,,,,,,,
4360,Vierzon,18100,"31 Avenue Du 19 Mars 1962",,47.24079,2.0911996,,,,,,,,,,,,,,,,,,
4358,Saint-Amand-Montrond,18200,"Avenue Du Général De Gaulle",,46.729515,2.4953456,,,,,,,,,,,,,,,,,,
4353,Trignac,44570,"31 Rue De Surcouf",,47.28952,-2.2086122,,,,,,,,,,,,,,,,,,
4352,"Saint-Nazaire (Loire Atlantique)",44600,"73 Route De La Côte D'Amour",,47.259796,-2.2430568,,,,,,,,,,,,,,,,,,
4347,Montluçon,03100,"12 Chemin Du Pont Des Isles",,46.331894,2.6000836,,,,,,,,,,,,,,,,,,
4342,Saint-Florent-Sur-Cher,18400,"2 Avenue Roger Boisselet",,47.00276,2.2661,,,,,,,,,,,,,,,,,,
4340,"Châteaubriant - Pays De La Loire",44110,"15 Rue Des Anciens Combattants",,47.716446,-1.387104,,,,,,,,,,,,,,,,,,
4335,Domérat,03410,"2 Rue J. Moulin",,46.36991,2.5712855,,,,,,,,,,,,,,,,,,
4332,Montluçon,03100,"121-125 Avenue Jules Guesde",,46.33766,2.5752094,,,,,,,,,,,,,,,,,,
4325,"La Chaussée-Saint-Victor",41260,"156 Avenue Du Maréchal Maunoury",,47.603283,1.3485992,,,,,,,,,,,,,,,,,,
4315,Blois,41000,"2 Boulevard De L'Industrie",,47.600945,1.3193052,,,,,,,,,,,,,,,,,,
4312,Romorantin-Lanthenay,41200,"590 Route De Vernou",,47.37842,1.7348199,,,,,,,,,,,,,,,,,,
4307,Savenay,44260,"Zac De La Colleraye",,47.371086,-1.9347646,,,,,,,,,,,,,,,,,,
4302,Blain,44130,"10 Avenue De La République",,47.47445,-1.7638996,,,,,,,,,,,,,,,,,,
4297,Saint-Gervais-La-Forêt,41350,"1 Rue Georges Méliès",,47.563816,1.3743105,,,,,,,,,,,,,,,,,,
4292,Château-Gontier,53200,"12 Avenue Ambroise Paré",,47.823547,-0.7122987,,,,,,,,,,,,,,,,,,
4287,Écommoy,72220,"Impasse Du Petit Soleil, 82",,47.837124,0.2651756,,,,,,,,,,,,,,,,,,
4282,Biscarrosse,40600,"57 Route De Bordeaux",,44.40934,-1.1603378,,,,,,,,,,,,,,,,,,
4277,Sablé-Sur-Sarthe,72300,"Route Du Mans",,47.837963,-0.3085392,,,,,,,,,,,,,,,,,,
4275,"Ussel (Corrèze)",19200,"8 Avenue Du Champ Grand",,45.563133,2.3248744,,,,,,,,,,,,,,,,,,
4273,Noirmoutier-En-L'Île,85330,"449 Rue Pierre Monnier",,47.004734,-2.2427278,,,,,,,,,,,,,,,,,,
4270,Pornic,44210,"16 - 18 Jean Monnet",,47.125877,-2.1185732,,,,,,,,,,,,,,,,,,
4267,Bias,47300,"850 Avenue De Bordeaux",,44.404198,0.6798854,,,,,,,,,,,,,,,,,,
4258,Montayral,47500,"11 Avenue De Fumel",,44.490208,0.9663116,,,,,,,,,,,,,,,,,,
4257,Segré,49500,"3 Boulevard De Renier",,47.69335,-0.86954355,,,,,,,,,,,,,,,,,,
4252,Onzain,41150,"Rue Georges Diard",,47.500694,1.1808512,,,,,,,,,,,,,,,,,,
4250,Château-Renault,37110,"Place Du Général De Gaulle",,47.596508,0.91162795,,,,,,,,,,,,,,,,,,
4242,"Gourdon (Lot)",46300,"Lieudit Bouriat",,44.720146,1.368753,,,,,,,,,,,,,,,,,,
4237,Château-Du-Loir,72500,"Rue Des Vignes, 2",,47.68619,0.42903975,,,,,,,,,,,,,,,,,,
4227,"La Flèche",72200,"Rue Des Maraîchers, 2",,47.70233,-0.060031574,,,,,,,,,,,,,,,,,,
4223,Égletons,19300,"Avenue Charles De Gaulle, 1287",,45.397007,2.033404,,,,,,,,,,,,,,,,,,
4217,Sautron,44880,"2 De Nantes",,47.25987,-1.6540478,,,,,,,,,,,,,,,,,,
4207,"Le Lude",72800,"13 Allée Des Tanneurs",,47.64047,0.15885717,,,,,,,,,,,,,,,,,,
4203,"La Chapelle-Sur-Erdre",44240,"20 Rue Louis Maisonneuve",,47.300243,-1.5557146,,,,,,,,,,,,,,,,,,
4198,Souillac,46200,"34 Avenue Général De Gaulle",,44.898624,1.4783678,,,,,,,,,,,,,,,,,,
4197,Arcachon,33260,"49 Chemin Lagrua",,44.6395,-1.1552333,,,,,,,,,,,,,,,,,,
4193,Gujan-Mestras,33470,"Avenue De Césarée",,44.615128,-1.076222,,,,,,,,,,,,,,,,,,
4192,Arcachon,33260,"Avenue Général Leclerc",,44.650826,-1.1502914,,,,,,,,,,,,,,,,,,
4187,Nantes,44300,"78 Route De Rennes",,47.255116,-1.5758106,,,,,,,,,,,,,,,,,,
4182,Amboise,37400,"147 Avenue Léonard De Vinci",,47.40362,1.01055,,,,,,,,,,,,,,,,,,
4180,Bouaye,44830,"6 Rue Des Coteaux De Grandlieu",,47.164238,-1.6813288,,,,,,,,,,,,,,,,,,
4177,"La Châtre",36400,"39 Avenue D'Auvergne",,46.58307,2.0001,,,,,,,,,,,,,,,,,,
4167,Nantes,44300,"8 Boulevard De La Beaujoire",,47.259186,-1.5100365,,,,,,,,,,,,,,,,,,
4162,Marmande,47200,"10 Avenue François Mitterrand",,44.51074,0.14011116,,,,,,,,,,,,,,,,,,
4160,Nantes,44300,"128 Boulevard Jules Verne",,47.242508,-1.5273064,,,,,,,,,,,,,,,,,,
4155,Nantes,44100,"19 Rue Chevreul",,47.197605,-1.5923539,,,,,,,,,,,,,,,,,,
4152,Saint-Jean-De-Monts,85160,"Boulevard Du Maréchal Juin",,46.792946,-2.0533419,,,,,,,,,,,,,,,,,,
4147,Bouguenais,44340,"La Croix Jeannette",,47.173992,-1.6244866,,,,,,,,,,,,,,,,,,
4145,Biganos,33380,"14 Rue Gutenberg",,44.64168,-0.952714,,,,,,,,,,,,,,,,,,
4142,Nantes,44200,"10 Boulevard Victor Hugo",,47.20427,-1.5536246,,,,,,,,,,,,,,,,,,
4138,Tulle,19000,"Lieudit Grand Champ Sud",,45.247902,1.7456951,,,,,,,,,,,,,,,,,,
4133,Ancenis,44150,"455 Boulevard Du Docteur Moutel",,47.371555,-1.177062,,,,,,,,,,,,,,,,,,
4132,Rezé,44400,"Centre Commercial Du Château De Reze",,47.184143,-1.5601392,,,,,,,,,,,,,,,,,,
4127,Rezé,44400,"6 De L Ile Mace",,47.189053,-1.548938,,,,,,,,,,,,,,,,,,
4118,Machecoul,44270,"30 Rue Marcel Brunelière",,46.984653,-1.8128914,,,,,,,,,,,,,,,,,,
4117,Nantes,44200,"92 Route De Clisson",,47.18977,-1.52131,,,,,,,,,,,,,,,,,,
4113,Saint-Sébastien-Sur-Loire,44230,"12-14 Centre Commercial De La Fontaine",,47.203438,-1.4916577,,,,,,,,,,,,,,,,,,
4112,Sarlat-La-Canéda,24200,"150 Avenue Aristide Briand",,44.880714,1.2160827,,,,,,,,,,,,,,,,,,
4107,Saint-Julien-De-Concelles,44450,"5 Du Petit Anjou",,47.251316,-1.3845223,,,,,,,,,,,,,,,,,,
4105,Miramont-De-Guyenne,47800,"720 Avenue Alfred Court",,44.593025,0.3484771,,,,,,,,,,,,,,,,,,
4103,Saint-Sylvain-D'Anjou,49480,"9 Et 11 Avenue De La Millardière",,47.513878,-0.47286656,,,,,,,,,,,,,,,,,,
4093,"La Membrolle-Sur-Choisille",37540,"268 Boulevard Charles De Gaulle",,47.428696,0.65692455,,,,,,,,,,,,,,,,,,
4088,Déols,36130,"186 Avenue Du Général De Gaulle",,46.830814,1.7064537,,,,,,,,,,,,,,,,,,
4087,"Les Sorinières",44840,"28 Rue Des Ecoles",,47.149235,-1.5258805,,,,,,,,,,,,,,,,,,
4083,Challans,85300,"54 Boulevard Clémenceau",,46.852062,-1.8873963,,,,,,,,,,,,,,,,,,
4082,Arès,33740,"Avenue De Bordeaux",,44.77169,-1.1176554,,,,,,,,,,,,,,,,,,
4077,Angers,49000,"97 Avenue Victor Chatenay",,47.48709,-0.5140287,,,,,,,,,,,,,,,,,,
4073,"La Réole",33190,"12 A Frimont Ouest",,44.58404,-0.06547528,,,,,,,,,,,,,,,,,,
4070,Angers,49000,"96 Avenue Du Général Patton",,47.474224,-0.5848683,,,,,,,,,,,,,,,,,,
4065,"Le Pompidou",19100,"144 Avenue Pompidou",,45.15776,1.5534891,,,,,,,,,,,,,,,,,,
4057,Malemort-Sur-Corrèze,19100,"173 Rue Jacques Et Bernardette Chirac",,45.16847,1.5511839,,,,,,,,,,,,,,,,,,
4052,Châteauroux,36000,"150 Avenue Charles De Gaulle",,46.805,1.69684,,,,,,,,,,,,,,,,,,
4048,Saint-Philbert-De-Grand-Lieu,44310,"5 La Chaussée",,47.04622,-1.6396873,,,,,,,,,,,,,,,,,,
4042,Tours,37000,"19 Bis Rue Général De Gaulle",,47.37955,0.69448435,,,,,,,,,,,,,,,,,,
4040,"La Riche",37520,"Rue Du 11 Novembre 1918",,47.38818,0.65916485,,,,,,,,,,,,,,,,,,
4037,Angers,49000,"46 Avenue Winston Churchill",,47.450768,-0.55717283,,,,,,,,,,,,,,,,,,
4033,Saint-Avertin,37550,"Avenue Des Fontaines",,47.366093,0.7193661,,,,,,,,,,,,,,,,,,
4032,"Saint-Maur (Indre)",36250,"Avenue D'Occitanie",,46.789,1.6571693,,,,,,,,,,,,,,,,,,
4020,Saint-Hilaire-De-Riez,85800,"Route De La Roche Sur Yon",,46.695312,-1.9124539,,,,,,,,,,,,,,,,,,
4017,Podensac,33720,"Lieudit Les Coudannes",,44.65659,-0.3650784,,,,,,,,,,,,,,,,,,
4012,Chambray-Lès-Tours,37170,"131 Grand Sud Avenue",,47.336594,0.7066541,,,,,,,,,,,,,,,,,,
4008,Esvres,37320,"1 Allée Dion Bouton - Zi St Malo",,47.29989,0.80033606,,,,,,,,,,,,,,,,,,
4007,Guéret,23000,"22 Le Verger",,46.175304,1.8934546,,,,,,,,,,,,,,,,,,
4005,Beaufort-En-Vallée,49250,"Rue De La Petite Porte",,47.436787,-0.20642099,,,,,,,,,,,,,,,,,,
4002,"La Brède",33650,"2 Impasse De L'Arnahurt",,44.689148,-0.5060045,,,,,,,,,,,,,,,,,,
3997,Vallet,44330,"10 Boulevard D'Italie",,47.15747,-1.2710574,,,,,,,,,,,,,,,,,,
3992,Martillac,33650,"Chemin De La Grange",,44.722126,-0.5308959,,,,,,,,,,,,,,,,,,
3988,Terrasson-Lavilledieu,24120,"Les Fauries Hautes",,45.128567,1.3266377,,,,,,,,,,,,,,,,,,
3978,"Pont De La Maye",33140,"75 Rte De Léognan",,44.76598,-0.5810399,,,,,,,,,,,,,,,,,,
3977,Clisson,44190,"3 De La Fontaine Câlin",,47.09649,-1.2830694,,,,,,,,,,,,,,,,,,
3967,Brem-Sur-Mer,85470,"8 Rue Du 8 Mai 1945",,46.602123,-1.829551,,,,,,,,,,,,,,,,,,
